stop_id,stop_code,stop_name,stop_desc,stop_lat,stop_lon,zone_id,stop_url,location_type,parent_station,stop_timezone,wheelchair_boarding
ADELADA1,20.0,Adelaide at Ada NB - #20,,42.974289,-81.225234,,,,,,0
ADELADA2,21.0,Adelaide at Ada SB - #21,,42.97461,-81.225615,,,,,,0
ADELCEN1,22.0,Adelaide at Central  NB - #22,,42.994567,-81.234344,,,,,,0
ADELCEN2,23.0,Adelaide at Central  SB - #23,,42.99494,-81.234663,,,,,,0
ADELDUN1,27.0,Adelaide at Dundas NB - #27,,42.989214,-81.231686,,,,,,0
ADELDUN2,28.0,Adelaide at Dundas SB - #28,,42.988343,-81.231467,,,,,,0
ADELEDNA,29.0,Adelaide at Edna SB - #29,,42.971883,-81.224342,,,,,,0
ADELHAMI,36.0,Adelaide at Hamilton SB - #36,,42.982275,-81.228829,,,,,,0
ADELHIL1,37.0,Adelaide at Hill NB - #37,,42.979827,-81.227608,,,,,,0
ADELHIL2,38.0,Adelaide at Hill SB - #38,,42.980363,-81.227992,,,,,,0
ADELLEA1,48.0,Adelaide south of Leathorne St NB - #48,,42.960884,-81.216852,,,,,,0
ADELLEA2,49.0,Adelaide at Leathorne SB - #49,,42.961015,-81.217334,,,,,,0
ADELLEA3,50.0,Adelaide north of Leathorne 1 NB - #50,,42.962904,-81.220032,,,,,,0
ADELLEA5,52.0,Adelaide north of Leathorne 2 NB - #52,,42.963991,-81.220618,,,,,,0
ADELLISI,53.0,Adelaide at Little Simcoe NB - #53,,42.982516,-81.228761,,,,,,0
ADELLORN,54.0,Adelaide at Lorne NB - #54,,42.992328,-81.233229,,,,,,0
ADELMAUD,56.0,Adelaide at Maud NB - #56,,42.970708,-81.223681,,,,,,0
ADELMCMA,57.0,Adelaide at McMahen NB - #57,,42.997642,-81.23587,,,,,,0
ADELNEL1,58.0,Adelaide at Nelson NB - #58,,42.977567,-81.226683,,,,,,0
ADELNEL2,59.0,Adelaide at Nelson SB - #59,,42.977503,-81.226792,,,,,,0
ADELOSG1,60.0,Adelaide at SE Osgoode NB - #60,,42.93825,-81.209242,,,,,,0
ADELOSG2,61.0,Adelaide at NW Osgoode SB - #61,,42.941834,-81.213008,,,,,,0
ADELOSG3,62.0,Adelaide at NE Osgoode NB - #62,,42.942427,-81.213344,,,,,,0
ADELOSG4,63.0,Adelaide at SE Osgoode SB - #63,,42.937296,-81.20903,,,,,,0
ADELOSG5,64.0,Adelaide at SE Osgoode NS NB - #64,,42.937249,-81.208782,,,,,,0
ADELOSG6,65.0,Adelaide at SW Osgoode SB - #65,,42.939001,-81.2102,,,,,,0
ADELOSG7,66.0,Adelaide at Osgoode 3 NB - #66,,42.939237,-81.210169,,,,,,0
ADELPAMA,69.0,Adelaide at Pall Mall SB - #69,,42.996487,-81.235428,,,,,,0
ADELPIC1,70.0,Adelaide at Piccadilly NB - #70,,42.99887,-81.236488,,,,,,0
ADELPIC2,71.0,Adelaide at Piccadilly SB - #71,,42.999014,-81.236686,,,,,,0
ADELPRIN,72.0,Adelaide at Princess SB - #72,,42.992506,-81.233465,,,,,,0
ADELQUEE,73.0,Adelaide at Queens SB - #73,,42.990215,-81.232309,,,,,,0
ADELROSE,76.0,Adelaide at Rosedale SB - #76,,42.993791,-81.234088,,,,,,0
ADELSDAL,77.0,Adelaide at Southdale SB - #77,,42.943708,-81.214531,,,,,,0
ADELTERR,81.0,Adelaide at Terrace NB - #81,,42.972963,-81.224651,,,,,,0
ADELTHO1,82.0,Adelaide at Thompson NB - #82,,42.968564,-81.222737,,,,,,0
ADELTHO2,83.0,207 Adelaide - #83,,42.964134,-81.220869,,,,,,0
ADELTHO4,84.0,Adelaide at Thompson SB - #84,,42.967775,-81.222568,,,,,,0
ADELTHO6,85.0,155 Adelaide SB - #85,,42.965996,-81.221812,,,,,,0
ADELTHO8,86.0,247 Adelaide SB - #86,,42.962455,-81.219962,,,,,,0
ANDOCOM1,154.0,Andover at Commissioners NB - #154,,42.955725,-81.275336,,,,,,0
ANDOCOM2,155.0,Andover at Commissioners SB - #155,,42.955721,-81.275497,,,,,,0
ANDOELMG,156.0,Andover at Elmgrove Cr SB - #156,,42.951688,-81.275511,,,,,,0
ANDONOVE,158.0,Andover at Novello NB - #158,,42.952839,-81.275472,,,,,,0
ANDOVIG1,160.0,Andover at Village Green NB - #160,,42.953684,-81.275744,,,,,,0
ANDOVIG2,161.0,Andover at Village Green SB - #161,,42.95356,-81.275802,,,,,,0
ANDOVIS2,163.0,Andover at Viscount SB - #163,,42.948172,-81.275288,,,,,,0
ANDOVIS3,164.0,Andover north of Viscount  NB - #164,,42.948217,-81.275205,,,,,,0
ASHBMIL1,168.0,Ashbury at Millbank EB - #168,,42.937301,-81.202254,,,,,,0
ASHBMIL2,169.0,Ashbury at Millbank WB - #169,,42.937358,-81.202382,,,,,,0
ASHBSUR1,170.0,Ashbury at Surrey Cres NB - #170,,42.938413,-81.204312,,,,,,0
ASHBSUR2,171.0,Ashbury at Surrey Cres SB - #171,,42.938244,-81.2043,,,,,,0
BASEDUND,184.0,Base Line at Dundee Place EB - #184,,42.959601,-81.25735,,,,,,0
BASEFAI2,189.0,Base Line west of Fairview Ave WB - #189,,42.962147,-81.226993,,,,,,0
BASEFAI3,190.0,Base Line west of Fairview EB - #190,,42.962039,-81.226664,,,,,,0
BASEHIG1,192.0,Base Line at High EB - #192,,42.961362,-81.235476,,,,,,0
BASEMGR1,196.0,Base Line at McGregor EB - #196,,42.959013,-81.264059,,,,,,0
BASEWEL1,206.0,Base Line east of Wellington EB - #206,,42.961772,-81.230042,,,,,,0
BASEWEL3,208.0,Base Line west of Wellington EB - #208,,42.961636,-81.231553,,,,,,0
BASEWEL6,210.0,Base Line west of Wellington WB - #210,,42.961786,-81.231501,,,,,,0
BASEWES1,211.0,Base Line east of West St  EB - #211,,42.958703,-81.267666,,,,,,0
BASEWES2,212.0,30 Base Line WB - #212,,42.959042,-81.264016,,,,,,0
BASEWES3,213.0,Base Line west of West St  EB - #213,,42.958329,-81.271553,,,,,,0
BASEWES4,214.0,90 Base Line WB - #214,,42.958764,-81.267069,,,,,,0
BASEWHA2,216.0,Base Line at Wharncliffe WB - #216,,42.959398,-81.260128,,,,,,0
BEACBAS1,222.0,Beachwood at Base Line NB - #222,,42.957793,-81.275356,,,,,,0
BEACBAS2,223.0,Beachwood at Base Line SB - #223,,42.957706,-81.275411,,,,,,0
BEAVBLYT,224.0,Beaverbrook at Blythwood WB - #224,,42.989057,-81.298029,,,,,,0
BEAVHORI,225.0,Beaverbrook at Horizon WB - #225,,42.990733,-81.292312,,,,,,0
BEAVOXF1,226.0,Beaverbrook at Oxford NB - #226,,42.987086,-81.281034,,,,,,0
BEAVOXF2,227.0,Beaverbrook at Oxford SB - #227,,42.986911,-81.281009,,,,,,0
BEAVWOND,228.0,Beaverbrook at Wonderland WB - #228,,42.990017,-81.294785,,,,,,0
BELMHILL,234.0,Belmont at Hillsborough EB - #234,,42.947155,-81.261834,,,,,,0
BELMNODA,235.0,Belmont at Notre Dame EB - #235,,42.946298,-81.26779,,,,,,0
BELMSLAW,236.0,Belmont at St Lawrence EB - #236,,42.946828,-81.264574,,,,,,0
BELMWHAR,237.0,Belmont at Wharncliffe EB - #237,,42.947323,-81.259069,,,,,,0
BERKGAR1,240.0,Berkshire at Gardenwood NB - #240,,42.962686,-81.285332,,,,,,0
BERKGAR4,241.0,Berkshire north of Gardenwood SB - #241,,42.962481,-81.286307,,,,,,0
BERKROB1,242.0,Berkshire at Robin NB - #242,,42.960797,-81.282859,,,,,,0
BERKROB2,243.0,Berkshire at Robin SB - #243,,42.961183,-81.283003,,,,,,0
BERKSPR1,244.0,Berkshire at Springbank NB - #244,,42.964044,-81.290657,,,,,,0
BERKSPR2,245.0,Berkshire at Springbank SB - #245,,42.963902,-81.290635,,,,,,0
BERKTOP1,246.0,Berkshire at Topping Lane NB - #246,,42.959633,-81.283813,,,,,,0
BERKTOP2,247.0,Berkshire at Topping Lane SB - #247,,42.959659,-81.283837,,,,,,0
BES1EXET,250.0,Bessemer at Exeter NB - #250,,42.927041,-81.212835,,,,,,0
BESSBES3,252.0,Bessemer at Bessemer Crt 2 NB - #252,,42.932033,-81.211985,,,,,,0
BESSHAR1,253.0,Bessemer at Hargrieve NB - #253,,42.929243,-81.212852,,,,,,0
BRADADE1,291.0,Bradley between Willow & Adelaide  EB - #291,,42.935783,-81.213495,,,,,,0
BRADADE2,292.0,Bradley at Adelaide  WB - #292,,42.935976,-81.209553,,,,,,0
BRADAGN2,293.0,Bradley at Willow 1 WB - #293,,42.935252,-81.216461,,,,,,0
BRADDEAR,294.0,Bradley at Dearness WB - #294,,42.93475,-81.221688,,,,,,0
BRADERNE,295.0,Bradley at Ernest Ave EB - #295,,42.93429,-81.237428,,,,,,0
BRADJALN,296.0,Bradley at Jalna EB - #296,,42.934325,-81.240431,,,,,,0
BRADWEL3,297.0,Bradley east of Wellington Rd EB - #297,,42.934543,-81.222187,,,,,,0
BRADWIL1,298.0,Bradley at Willow 1 EB - #298,,42.934873,-81.218812,,,,,,0
BRUCMARL,303.0,Bruce at Marley Place EB - #303,,42.972934,-81.251357,,,,,,0
BRUCWORT,304.0,Bruce at Wortley EB - #304,,42.972448,-81.253366,,,,,,0
BURLCAIR,312.0,Burlington at Cairn EB - #312,,42.963624,-81.203471,,,,,,0
BURLPOMI,313.0,Burlington at Pond Mills EB - #313,,42.963336,-81.201285,,,,,,0
CAPUBLSM,321.0,Capulet Lane at Blacksmith SB - #321,,42.987537,-81.299896,,,,,,0
CAPUCAPW,322.0,Capulet Lane at Capulet Walk SB - #322,,42.985177,-81.298375,,,,,,0
CARFCAR1,323.0,Carfrae at Carfrae NB - #323,,42.974211,-81.245171,,,,,,0
CARFCAR2,324.0,Carfrae & Carfrae St SB - #324,,42.974234,-81.245255,,,,,,0
CARFGRAN,325.0,Carfrae at Grand NB - #325,,42.971887,-81.244635,,,,,,0
CARFWOOD,326.0,Carfrae at Woodland Pl SB - #326,,42.972115,-81.244794,,,,,,0
CATHBASE,331.0,Cathcart at Baseline NB - #331,,42.960272,-81.253127,,,,,,0
CATHDEVO,334.0,Cathcart at Devonshire NB - #334,,42.963072,-81.253339,,,,,,0
CATHELMW,336.0,Cathcart at Elmwood NB - #336,,42.970601,-81.254468,,,,,,0
CATHLANG,339.0,Cathcart at Langarth NB - #339,,42.965372,-81.253657,,,,,,0
CATHTECU,340.0,Cathcart at Tecumseh NB - #340,,42.967892,-81.254039,,,,,,0
CHERCHBL,371.0,Cherryhill at Cherryhill Blvd WB - #371,,42.99116,-81.277868,,,,,,0
CHERCHC1,372.0,Cherryhill at Cherryhill Blvd NB - #372,,42.990935,-81.277884,,,,,,0
CHERCHC3,374.0,Cherryhill east of Cherryhill Cir EB - #374,,42.99177,-81.275942,,,,,,0
CHERCHC4,375.0,160 Cherryhill Place - #375,,42.991975,-81.275413,,,,,,0
CHEROXF1,378.0,Cherryhill north of Oxford 1 NB - #378,,42.989354,-81.276458,,,,,,0
CHEROXF2,379.0,Cherryhill at Oxford SB - #379,,42.989064,-81.276488,,,,,,0
CHERPLA1,381.0,Cherryhill at Platts Lane EB - #381,,42.99171,-81.273521,,,,,,0
CHERPLA2,382.0,Cherryhill at Platts Lane WB - #382,,42.991829,-81.273316,,,,,,0
CHIDCHID,384.0,Chiddington Ave at Chiddington Gt SB - #384,,42.952254,-81.233581,,,,,,0
CHIDHUN1,385.0,Chiddington at Huntingdon EB - #385,,42.953491,-81.237051,,,,,,0
CHIDHUN2,386.0,Chiddington at Huntingdon WB - #386,,42.953562,-81.235669,,,,,,0
CHIDUPQ2,389.0,Chiddington at Upper Queens WB - #389,,42.953264,-81.239981,,,,,,0
CHIDWILK,390.0,Chiddington at Wilkins NB - #390,,42.952296,-81.233496,,,,,,0
COLBCEN1,432.0,Colborne at Central NB - #432,,42.992777,-81.242853,,,,,,0
COLBCEN2,433.0,Colborne at Central SB - #433,,42.992253,-81.242789,,,,,,0
COLBDUFF,434.0,Colborne at Dufferin SB - #434,,42.989251,-81.241198,,,,,,0
COLBOXFD,438.0,Colborne at Oxford SB - #438,,42.99796,-81.24567,,,,,,0
COLBPAM1,439.0,Colborne at Pall Mall NB - #439,,42.994937,-81.243983,,,,,,0
COLBPAM2,440.0,Colborne at Pall Mall SB - #440,,42.994842,-81.244053,,,,,,0
COLBPRIN,443.0,Colborne at Princess NB - #443,,42.990303,-81.241638,,,,,,0
COMMADE1,445.0,Commissioners at Adelaide EB - #445,,42.959153,-81.2149,,,,,,0
COMMADE2,446.0,Commissioners east of Adelaide WB - #446,,42.959517,-81.214417,,,,,,0
COMMADE4,447.0,Commissioners west of Adelaide WB - #447,,42.958643,-81.220485,,,,,,0
COMMFRO1,454.0,Commissioners at Frontenac EB - #454,,42.960312,-81.20809,,,,,,0
COMMFRO2,455.0,Commissioners at Frontenac WB - #455,,42.960331,-81.209188,,,,,,0
COMMGRD1,456.0,Commissioners at Gordon EB - #456,,42.956583,-81.264504,,,,,,0
COMMGRD2,457.0,Commissioners at Gordon WB - #457,,42.956814,-81.263811,,,,,,0
COMMHUXL,461.0,Commissioners at Huxley WB - #461,,42.95665,-81.267432,,,,,,0
COMMKIE1,462.0,Commissioners at King Edward EB - #462,,42.960762,-81.205452,,,,,,0
COMMKIE2,463.0,Commissioners at King Edward WB - #463,,42.960842,-81.205928,,,,,,0
COMMLEA1,464.0,Commissioners at Leathorne EB - #464,,42.959597,-81.212585,,,,,,0
COMMLEA2,465.0,Commissioners at Leathorne WB - #465,,42.95983,-81.212451,,,,,,0
COMMNOT1,473.0,Commissioners west of Nottinghill EB - #473,,42.952527,-81.299502,,,,,,0
COMMNOT3,474.0,Commissioners east of Nottinghill EB - #474,,42.95305,-81.296777,,,,,,0
COMMPOM1,475.0,Commissioners west of Pondmills EB - #475,,42.961323,-81.201406,,,,,,0
COMMPOM4,478.0,Commissioners west of Pondmills WB - #478,,42.9615,-81.20151,,,,,,0
COMMVISC,483.0,Commissioners at Viscount EB - #483,,42.956481,-81.268808,,,,,,0
DEARBRAD,505.0,Dearness at Bradley NB - #505,,42.935217,-81.220893,,,,,,0
DEARDUL1,506.0,Dearness at Dunelm Lane NB - #506,,42.937012,-81.221301,,,,,,0
DEARDUL2,507.0,Dearness at Dunelm Lane SB - #507,,42.936711,-81.221339,,,,,,0
DEARWILL,508.0,Dearness at Willow Lane SB - #508,,42.938281,-81.22172,,,,,,0
DOWASH1,528.0,Dow at Ashbury EB - #528,,42.939373,-81.204839,,,,,,0
DOWASH2,529.0,Dow at Ashbury WB - #529,,42.93947,-81.205079,,,,,,0
DUFFCOLB,531.0,Dufferin at Colborne EB - #531,,42.988828,-81.241878,,,,,,0
DUNDADE1,537.0,Dundas at Adelaide EB - #537,,42.988586,-81.232139,,,,,,0
DUNDADE2,538.0,Dundas at Adelaide WB - #538,,42.988694,-81.232111,,,,,,0
DUNDASH1,540.0,Dundas at Ashland EB - #540,,42.995436,-81.208452,,,,,,0
DUNDASH4,542.0,Dundas east of Ashland WB - #542,,42.995535,-81.208574,,,,,,0
DUNDCOL1,552.0,Dundas at Colborne EB - #552,,42.986356,-81.239964,,,,,,0
DUNDCOL2,553.0,Dundas at Colborne WB - #553,,42.986632,-81.239501,,,,,,0
DUNDDORI,554.0,Dundas at Dorinda WB - #554,,42.993689,-81.214982,,,,,,0
DUNDEGE1,560.0,Dundas at Egerton EB - #560,,42.992935,-81.217246,,,,,,0
DUNDEGE2,561.0,Dundas at Egerton WB - #561,,42.993006,-81.217444,,,,,,0
DUNDELE1,562.0,Dundas at Eleanor EB - #562,,42.994507,-81.211776,,,,,,0
DUNDELIZ,564.0,Dundas at Elizabeth WB - #564,,42.989457,-81.229542,,,,,,0
DUNDENGL,565.0,Dundas at English WB - #565,,42.990231,-81.226943,,,,,,0
DUNDHAL4,574.0,Dundas west of Hale WB - #574,,42.997855,-81.200533,,,,,,0
DUNDHARC,575.0,Dundalk at Harcroft Cres SB - #575,,42.946155,-81.243894,,,,,,0
DUNDHEWI,576.0,Dundas at Hewitt EB - #576,,42.990129,-81.226942,,,,,,0
DUNDHIG1,577.0,Dundas at Highbury  EB - #577,,42.996596,-81.204339,,,,,,0
DUNDHIG2,578.0,Dundas at Highbury WB - #578,,42.996795,-81.20435,,,,,,0
DUNDHIN1,579.0,Dundalk at Hines NB - #579,,42.945118,-81.244214,,,,,,0
DUNDHIN2,580.0,Dundalk at Hines SB - #580,,42.944798,-81.244219,,,,,,0
DUNDKELL,583.0,Dundas at Kellogg Lane EB - #583,,42.993594,-81.214891,,,,,,0
DUNDLYLE,584.0,Dundas at Lyle EB - #584,,42.989387,-81.229835,,,,,,0
DUNDMAI1,585.0,Dundas at Maitland EB - #585,,42.987275,-81.237054,,,,,,0
DUNDMAI2,586.0,Dundas at Maitland WB - #586,,42.987404,-81.236751,,,,,,0
DUNDONT1,592.0,Dundas at Ontario EB - #592,,42.99162,-81.22176,,,,,,0
DUNDONT2,593.0,Dundas at Ontario WB - #593,,42.991671,-81.22204,,,,,,0
DUNDQUE1,594.0,Dundas at Quebec EB - #594,,42.992387,-81.219149,,,,,,0
DUNDQUE2,595.0,Dundas at Quebec WB - #595,,42.9924,-81.219503,,,,,,0
DUNDREC1,596.0,Dundas at Rectory EB - #596,,42.990839,-81.224434,,,,,,0
DUNDREC2,597.0,Dundas at Rectory WB - #597,,42.990957,-81.22441,,,,,,0
DUNDRIDO,600.0,Dundas at Ridout EB - #600,,42.982377,-81.254162,,,,,,0
DUNDSDAL,604.0,Dundalk at Southdale SB - #604,,42.942477,-81.243882,,,,,,0
DUNDSTOC,608.0,Dundalk at Stockton NB - #608,,42.942628,-81.243814,,,,,,0
DUNDWAT1,614.0,Dundas east of Waterloo EB - #614,,42.985819,-81.241849,,,,,,0
DUNDWAT2,615.0,Dundas at Waterloo WB - #615,,42.985855,-81.242283,,,,,,0
DUNDWEL2,620.0,Dundas at Wellington WB - #620,,42.985046,-81.245045,,,,,,0
DUNDWEL5,622.0,Dundas east of Wellington EB - #622,,42.985037,-81.244492,,,,,,0
DUNDWIL1,623.0,Dundas at William EB - #623,,42.988001,-81.234357,,,,,,0
DUNDWIL2,624.0,Dundas at William WB - #624,,42.988167,-81.234044,,,,,,0
EDENEAS1,626.0,Eden at Easy EB - #626,,42.946669,-81.234692,,,,,,0
EDENEAS2,627.0,Eden at Easy WB - #627,,42.946758,-81.234301,,,,,,0
EDENNIX,628.0,Eden at Nixon WB - #628,,42.946509,-81.23719,,,,,,0
EDENVERU,629.0,Eden at Verulam EB - #629,,42.946947,-81.231417,,,,,,0
EDWABASE,630.0,Edward at Baseline SB - #630,,42.959872,-81.256607,,,,,,0
EDWAELMW,634.0,Edward at Elmwood SB - #634,,42.970163,-81.257901,,,,,,0
EDWAHIWY,637.0,Edward at Highway SB - #637,,42.962174,-81.256749,,,,,,0
EDWALANG,639.0,Edward at Langarth SB - #639,,42.965432,-81.257158,,,,,,0
EDWATECU,640.0,Edward at Tecumseh SB - #640,,42.96804,-81.257575,,,,,,0
ELMWCATH,641.0,Elmwood at Cathcart WB - #641,,42.970779,-81.254355,,,,,,0
ELMWMARL,642.0,Elmwood at Marley Place WB - #642,,42.971201,-81.250563,,,,,,0
ELMWWORT,643.0,Elmwood at Wortley WB - #643,,42.970934,-81.252723,,,,,,0
EMERHIW1,644.0,Emery at Highwood EB - #644,,42.963584,-81.270317,,,,,,0
EMERHIW2,645.0,Emery at Highwood WB - #645,,42.963681,-81.270068,,,,,,0
EMERPADD,646.0,Emery at Paddington EB - #646,,42.963561,-81.263574,,,,,,0
EMERPHY1,647.0,Emery at Phyllis EB - #647,,42.963473,-81.273514,,,,,,0
EMERPHY2,648.0,Emery at Phyllis WB - #648,,42.963571,-81.272846,,,,,,0
EMERWIN1,649.0,Emery west of Winston EB - #649,,42.963719,-81.266921,,,,,,0
EMERWIN2,650.0,Emery at Winston WB - #650,,42.963768,-81.26765,,,,,,0
ERNEBRA1,654.0,Ernest at Bradley NB - #654,,42.934816,-81.236399,,,,,,0
ERNEBRA2,655.0,Ernest at Bradley SB - #655,,42.934612,-81.236504,,,,,,0
ERNECON1,656.0,Ernest at Conway NB - #656,,42.932709,-81.23643,,,,,,0
ERNECON2,657.0,Ernest at Conway SB - #657,,42.933053,-81.236551,,,,,,0
ERNEELVI,658.0,Ernest at Elvira SB - #658,,42.939341,-81.238539,,,,,,0
ERNEFEN1,659.0,Ernest at Fennel NB - #659,,42.929488,-81.23594,,,,,,0
ERNEFEN2,660.0,Ernest at Fennel SB - #660,,42.930285,-81.235775,,,,,,0
ERNEFINC,661.0,Ernest at Finch SB - #661,,42.92856,-81.236307,,,,,,0
ERNEJAL1,662.0,Ernest at Jalna NB - #662,,42.941107,-81.236799,,,,,,0
ERNEJAL2,663.0,Ernest at Jalna SB - #663,,42.9407,-81.237401,,,,,,0
ERNEMUR1,665.0,Opposite Sir Aurther Carty PS - #665,,42.938013,-81.238457,,,,,,0
ERNEMUR3,666.0,Ernest at Muriel NB - #666,,42.936425,-81.237508,,,,,,0
ERNEPAUL,667.0,Ernest at Pauline SB - #667,,42.937018,-81.238241,,,,,,0
ERNESCO1,668.0,Ernest at Scotchmere SB - #668,,42.926915,-81.235957,,,,,,0
ERNESCO2,669.0,Ernest at Scotchmere NB - #669,,42.926654,-81.2358,,,,,,0
EXETMEG,670.0,Exeter at Meg EB - #670,,42.92479,-81.228489,,,,,,0
EXETSHOL,671.0,Exeter at Sholto WB - #671,,42.924966,-81.228259,,,,,,0
EXETWEL1,672.0,Exeter at Wellington EB - #672,,42.926036,-81.215134,,,,,,0
FARRPROU,717.0,Farrah at Proudfoot EB - #717,,42.986899,-81.289859,,,,,,0
FERNCONT,721.0,Ferndale at Country Club Drive WB - #721,,42.946932,-81.25205,,,,,,0
FLORASH1,733.0,Florence at Ashland EB - #733,,42.992132,-81.20756,,,,,,0
FLORASH2,734.0,Florence at Ashland WB - #734,,42.992391,-81.207153,,,,,,0
FLOREGE1,736.0,Florence at Egerton EB - #736,,42.989745,-81.21583,,,,,,0
FLOREGE2,737.0,Florence at Egerton WB - #737,,42.989892,-81.21581,,,,,,0
FLORELE1,738.0,Florence at Eleanor EB - #738,,42.991399,-81.210202,,,,,,0
FLORELE2,739.0,Florence at Eleanor WB - #739,,42.991506,-81.210279,,,,,,0
FLORFAI1,740.0,Florence at Fairgrounds south Gate EB - #740,,42.988583,-81.218615,,,,,,0
FLORFAI2,741.0,Florence at Fairgrounds south Gate WB - #741,,42.988638,-81.218949,,,,,,0
FLORHIG2,743.0,Florence at Highbury WB - #743,,42.994128,-81.203191,,,,,,0
FLORKEL1,744.0,Florence at Kellogg Lane EB - #744,,42.990512,-81.213309,,,,,,0
FLORKEL2,745.0,Florence at Kellogg Lane WB - #745,,42.990585,-81.213424,,,,,,0
GARDBER1,759.0,Gardenwood at Berkshire NB - #759,,42.962908,-81.284862,,,,,,0
GARDRID1,762.0,Gardenwood at Ridgewood EB - #762,,42.966547,-81.283639,,,,,,0
GARDRID2,763.0,Gardenwood east of Ridgewood WB - #763,,42.967144,-81.282587,,,,,,0
GARDSOU2,766.0,Gardenwood at Southcrest SB - #766,,42.964872,-81.285158,,,,,,0
GARDSOU3,767.0,57 Gardenwood NB - #767,,42.964982,-81.285133,,,,,,0
GRANHIG1,790.0,Grand at High EB - #790,,42.971973,-81.240767,,,,,,0
GRANHIG2,791.0,Grand at High WB - #791,,42.972112,-81.24004,,,,,,0
GRANHIG4,792.0,84 Grand WB - #792,,42.971894,-81.241983,,,,,,0
GREYCOLB,804.0,Grey at Colborne WB - #804,,42.979241,-81.236529,,,,,,0
GREYWATE,805.0,Grey at Waterloo WB - #805,,42.978687,-81.238647,,,,,,0
HAMIADE1,845.0,Hamilton at Adelaide EB - #845,,42.981991,-81.228831,,,,,,0
HAMIADE2,846.0,Hamilton at Adelaide WB - #846,,42.982041,-81.228328,,,,,,0
HAMIEAST,850.0,Hamilton at East WB - #850,,42.97858,-81.200065,,,,,,0
HAMIEGE1,851.0,Hamilton at Egerton EB - #851,,42.980238,-81.21243,,,,,,0
HAMIEGE2,852.0,Hamilton at Egerton WB - #852,,42.980285,-81.211777,,,,,,0
HAMIELM,854.0,Hamilton at Elm WB - #854,,42.979565,-81.207202,,,,,,0
HAMILTGR,863.0,Hamilton at Little Grey WB - #863,,42.981338,-81.224253,,,,,,0
HAMIMAME,865.0,Hamilton at Mamelon EB - #865,,42.981302,-81.224568,,,,,,0
HAMIPILA,871.0,Hamilton at Pine Lawn EB - #871,,42.97849,-81.20048,,,,,,0
HAMIREC1,874.0,Hamilton at Rectory EB - #874,,42.98062,-81.22053,,,,,,0
HAMIREC2,875.0,Hamilton at Rectory WB - #875,,42.980659,-81.220012,,,,,,0
HAMISAC1,879.0,Hamilton at Sackville EB - #879,,42.980326,-81.215376,,,,,,0
HAMISAC2,880.0,Hamilton at Sackville WB - #880,,42.980438,-81.215361,,,,,,0
HAMISJU1,883.0,Hamilton at St. Julien EB - #883,,42.97908,-81.204402,,,,,,0
HAMISJU2,884.0,Hamilton at St. Julien WB - #884,,42.979134,-81.204082,,,,,,0
HAMITENN,885.0,Hamilton at Tennyson EB - #885,,42.97947,-81.207224,,,,,,0
HIGBBEA1,893.0,Highbury at Beattie NB - #893,,42.993153,-81.202075,,,,,,0
HIGBBEA2,894.0,Highbury at Beattie SB - #894,,42.993444,-81.202342,,,,,,0
HIGBDUN1,900.0,Highbury at Dundas NB - #900,,42.997192,-81.203795,,,,,,0
HIGBDUN2,901.0,Highbury at Dundas SB - #901,,42.996432,-81.203754,,,,,,0
HIGBWIL1,928.0,Highbury at Wilton NB - #928,,42.990666,-81.200884,,,,,,0
HIGBWIL2,929.0,Highbury at Wilton SB - #929,,42.990734,-81.200996,,,,,,0
HIGHBASE,930.0,High at Baseline NB - #930,,42.961578,-81.236142,,,,,,0
HIGHCHE1,931.0,High at Chester NB - #931,,42.963971,-81.236823,,,,,,0
HIGHCHE2,932.0,High at Chester SB - #932,,42.963761,-81.236863,,,,,,0
HIGHEME1,933.0,High at Emery NB - #933,,42.965409,-81.237156,,,,,,0
HIGHEME2,934.0,High at Emery SB - #934,,42.965776,-81.237322,,,,,,0
HIGHGRA2,936.0,High at Grand SB - #936,,42.9716,-81.238813,,,,,,0
HIGHMCL1,937.0,High at McClary NB - #937,,42.971092,-81.238544,,,,,,0
HIGHWIN2,940.0,High at Windsor Cres SB - #940,,42.968769,-81.238034,,,,,,0
HIGHWIN3,941.0,High at Windsor Cres NB - #941,,42.968628,-81.237928,,,,,,0
HIGVFER1,943.0,Highview at Ferndale NB - #943,,42.9478,-81.255608,,,,,,0
HIGVFER2,944.0,Highview at Ferndale SB - #944,,42.94795,-81.255727,,,,,,0
HIGVROS1,945.0,Highview at Rossmore Crt NB - #945,,42.952747,-81.255522,,,,,,0
HIGVROS2,946.0,Highview at Rossmore Crt SB - #946,,42.952859,-81.255598,,,,,,0
HIGVROS3,947.0,Highview at Rossmore Place NB - #947,,42.950456,-81.255103,,,,,,0
HIGVROS4,948.0,Highview at Rossmore Place SB - #948,,42.950352,-81.255194,,,,,,0
HIGVWHA1,949.0,Highview at Wharncliffe EB - #949,,42.953793,-81.259268,,,,,,0
HIGVWHA2,950.0,90 Highview - #950,,42.954023,-81.256969,,,,,,0
HIGVWHA4,951.0,Highview at Wharncliffe WB - #951,,42.953883,-81.258879,,,,,,0
HOLIEXET,954.0,Holiday at Exeter SB - #954,,42.926412,-81.218862,,,,,,0
HOLIGREE,955.0,Holiday at Greenfield SB - #955,,42.928343,-81.219316,,,,,,0
HORTHAMI,966.0,Horton at Hamilton WB - #966,,42.982727,-81.233841,,,,,,0
HORTMAIT,967.0,Horton at Maitland EB - #967,,42.982411,-81.234569,,,,,,0
HORTWAT2,977.0,Horton at Waterloo WB - #977,,42.981101,-81.239838,,,,,,0
HORTWELL,978.0,Horton at Wellington EB - #978,,42.980351,-81.242012,,,,,,0
HORTWHA2,980.0,Horton west of Wharncliffe WB - #980,,42.976819,-81.263014,,,,,,0
HORTWHA3,981.0,Horton west of Wharncliffe EB - #981,,42.976569,-81.264939,,,,,,0
HORTWHA4,982.0,Horton west of Wharncliffe 2 WB - #982,,42.97667,-81.265273,,,,,,0
JALNAUGU,1039.0,Jalna at Augusta WB - #1039,,42.925083,-81.23802,,,,,,0
JALNBEE1,1040.0,Jalna at Beechbank NB - #1040,,42.940318,-81.230124,,,,,,0
JALNBEE2,1041.0,Jalna at Beechbank Cr SB - #1041,,42.940752,-81.230922,,,,,,0
JALNBEM2,1043.0,Jalna at Beechmount SB - #1043,,42.935685,-81.228522,,,,,,0
JALNBRA1,1044.0,1102 Jalna - #1044,,42.933241,-81.2283,,,,,,0
JALNBRA3,1046.0,Jalna north of Bradley NB - #1046,,42.934874,-81.228269,,,,,,0
JALNBRA4,1047.0,Jalna south of Bradley SB - #1047,,42.932977,-81.228337,,,,,,0
JALNCHES,1048.0,Jalna at Cheswick Circle NB - #1048,,42.92977,-81.24294,,,,,,0
JALNCLAR,1049.0,Jalna at Clara Cr  WB - #1049,,42.924953,-81.239608,,,,,,0
JALNCOLE,1050.0,Jalna at Colette NB - #1050,,42.936824,-81.245692,,,,,,0
JALNERI1,1051.0,Jalna at Erica NB - #1051,,42.934258,-81.244643,,,,,,0
JALNERI2,1052.0,Jalna at Erica north SB - #1052,,42.936714,-81.245736,,,,,,0
JALNERI4,1053.0,Jalna at Erica south SB - #1053,,42.933905,-81.244384,,,,,,0
JALNERN3,1055.0,Jalna at Ernest north EB - #1055,,42.940752,-81.236511,,,,,,0
JALNERN4,1056.0,Jalna at Ernest south WB - #1056,,42.925286,-81.235316,,,,,,0
JALNERN5,1057.0,Jalna at Ernest south EB - #1057,,42.925268,-81.234714,,,,,,0
JALNFAI1,1058.0,1559 Jalna NB - #1058,,42.927868,-81.243276,,,,,,0
JALNFAI2,1059.0,Jalna at Fairchild WB - #1059,,42.92513,-81.241265,,,,,,0
JALNJOS1,1060.0,Jalna at Josselyn NB - #1060,,42.938372,-81.245514,,,,,,0
JALNJOS2,1061.0,Jalna north of Josselyn SB - #1061,,42.940554,-81.244017,,,,,,0
JALNJOS4,1062.0,Jalna south of Josselyn SB - #1062,,42.938103,-81.245772,,,,,,0
JALNMEG,1063.0,Jalna at Meg WB - #1063,,42.926158,-81.231418,,,,,,0
JALNPIER,1064.0,Jalna at Piers NB - #1064,,42.928458,-81.22641,,,,,,0
JALNPON1,1065.0,Jalna at Ponderosa NB - #1065,,42.938001,-81.22926,,,,,,0
JALNPOP1,1067.0,Jalna at Poplar WB - #1067,,42.941114,-81.231727,,,,,,0
JALNSDAL,1071.0,Jalna at Southdale NB - #1071,,42.941258,-81.243625,,,,,,0
JALNTUMB,1072.0,Jalna at Tumbleweed SB - #1072,,42.938776,-81.229523,,,,,,0
KINGBUR1,1077.0,King Edward at Burlington NB - #1077,,42.962132,-81.20638,,,,,,0
KINGCHI1,1078.0,King Edward at Chippendale NB - #1078,,42.964116,-81.208154,,,,,,0
KINGCHI2,1079.0,King Edward at Chippendale SB - #1079,,42.964385,-81.20833,,,,,,0
KINGEAGL,1082.0,King Edward at Eagle SB - #1082,,42.963123,-81.207767,,,,,,0
KINGECHO,1083.0,King Edward at Echo SB - #1083,,42.966097,-81.209213,,,,,,0
KINGOAK1,1084.0,Kingsway at Oakridge EB - #1084,,42.977778,-81.294035,,,,,,0
KINGOAK2,1085.0,Kingsway at Oakridge WB - #1085,,42.977689,-81.294624,,,,,,0
KINGRICH,1086.0,King at Richmond EB - #1086,,42.9826,-81.2486,,,,,,0
KINGSCE1,1087.0,King Edward at Scenic NB - #1087,,42.967366,-81.210686,,,,,,0
KINGSCE2,1088.0,King Edward at Scenic SB - #1088,,42.967282,-81.210728,,,,,,0
KINGTHO2,1089.0,King Edward at Thompson SB - #1089,,42.969234,-81.212795,,,,,,0
KINGVERM,1090.0,King Edward at Vermont Ave NB - #1090,,42.965959,-81.208889,,,,,,0
KINGWON1,1091.0,Kingsway at Wonderland EB - #1091,,42.978802,-81.290458,,,,,,0
KINGWON2,1092.0,Kingsway at Wonderland WB - #1092,,42.978844,-81.290607,,,,,,0
LANGHOLB,1105.0,Langarth at Holborn WB - #1105,,42.964875,-81.262683,,,,,,0
MACKEMER,1131.0,MacKay at Emery SB - #1131,,42.963916,-81.264329,,,,,,0
MCMAWON2,1154.0,McMaster at Wonderland WB - #1154,,42.942934,-81.287573,,,,,,0
MEGEXE1,1168.0,Meg at Exeter NB - #1168,,42.925081,-81.231996,,,,,,0
MEGEXE2,1169.0,Meg at Exeter SB - #1169,,42.925303,-81.232154,,,,,,0
MILLASHB,1174.0,Millbank at Ashbury SB - #1174,,42.942113,-81.202548,,,,,,0
MILLBEX1,1175.0,687 Millbank - #1175,,42.940822,-81.200906,,,,,,0
MILLBEX2,1176.0,Millbank at Bexhill  SB - #1176,,42.941025,-81.201199,,,,,,0
MILLBEX3,1177.0,Millbank at Bexhill  NB - #1177,,42.938394,-81.200185,,,,,,0
MILLBEX4,1178.0,720 Millbank - #1178,,42.938947,-81.200415,,,,,,0
MILLBRID,1179.0,Millbank at Bridington NB - #1179,,42.942167,-81.202469,,,,,,0
MILLDOWN,1180.0,Millbank at Downing NB - #1180,,42.946786,-81.211933,,,,,,0
MILLDUD1,1181.0,Millbank at Dudley NB - #1181,,42.94404,-81.20437,,,,,,0
MILLDUD2,1182.0,Millbank at Dudley SB - #1182,,42.944011,-81.204454,,,,,,0
MILLEBU2,1183.0,131 Millbank - #1183,,42.946075,-81.211972,,,,,,0
MILLEBU4,1184.0,Millbank at Ebury SB - #1184,,42.9487,-81.211287,,,,,,0
MILLHARR,1185.0,Millbank at Harrow  NB - #1185,,42.945846,-81.204681,,,,,,0
MILLPAR1,1186.0,Millbank at Parliament EB - #1186,,42.952091,-81.20796,,,,,,0
MILLPAR2,1187.0,Millbank at Parliament WB - #1187,,42.952118,-81.20764,,,,,,0
MILLSDA1,1188.0,Millbank at Southdale NB - #1188,,42.945211,-81.21175,,,,,,0
MILLSDA2,1189.0,Millbank at Southdale SB - #1189,,42.944955,-81.211803,,,,,,0
MILLSDA4,1190.0,Laurier Secondary School - #1190,,42.94561,-81.204729,,,,,,0
MILLSHA1,1191.0,Millbank at Shaftsbury east NB - #1191,,42.950273,-81.205551,,,,,,0
MILLSHA2,1192.0,Millbank at Shaftsbury east SB - #1192,,42.950104,-81.205462,,,,,,0
MILLSHA3,1193.0,Millbank at Shaftsbury NB - #1193,,42.949798,-81.210517,,,,,,0
MILLSHA4,1194.0,Millbank at Shaftsbury west SB - #1194,,42.949744,-81.210611,,,,,,0
MILLSTAN,1195.0,Millbank at Stanhope NB - #1195,,42.948279,-81.21163,,,,,,0
NEWBADE1,1228.0,Newbold at Adelaide EB - #1228,,42.934315,-81.208905,,,,,,0
NEWBBESS,1229.0,Newbold at Bessemer EB - #1229,,42.934002,-81.211509,,,,,,0
NEWBCON1,1231.0,Newbold at Consortium EB - #1231,,42.934763,-81.20534,,,,,,0
NEWBTOWE,1232.0,Newbold at Towerline EB - #1232,,42.93529,-81.201678,,,,,,0
NIXOCRE2,1234.0,Nixon at Creston SB - #1234,,42.944628,-81.237278,,,,,,0
NIXOEDEN,1235.0,Nixon at Eden NB - #1235,,42.946199,-81.237585,,,,,,0
NIXOSDAL,1236.0,Nixon at Southdale SB - #1236,,42.943059,-81.236891,,,,,,0
NIXOWIMB,1237.0,Nixon at Southdale NB - #1237,,42.94292,-81.236739,,,,,,0
NOTRVISC,1240.0,Notre Dame at Viscount SB - #1240,,42.94825,-81.270439,,,,,,0
OSGOADE1,1249.0,Osgoode east of Adelaide EB - #1249,,42.937583,-81.208226,,,,,,0
OSGOADE3,1250.0,Osgoode west of Adelaide EB - #1250,,42.938882,-81.210941,,,,,,0
OSGOBRE1,1251.0,Osgoode at Breckenridge EB - #1251,,42.937553,-81.217407,,,,,,0
OSGOBRE2,1252.0,Osgoode at Breckenridge WB - #1252,,42.93763,-81.217447,,,,,,0
OSGOFITZ,1253.0,Osgoode at Fitzroy WB - #1253,,42.937771,-81.214978,,,,,,0
OSGOKIN1,1254.0,Osgoode at Kinburn EB - #1254,,42.937955,-81.213015,,,,,,0
OSGOKIN2,1255.0,Osgoode at Kinburn WB - #1255,,42.939015,-81.21095,,,,,,0
OSGOKIN4,1256.0,1081 Osgoode WB - #1256,,42.938117,-81.212643,,,,,,0
OSGOMETC,1257.0,Osgoode at Metcalfe EB - #1257,,42.937637,-81.215597,,,,,,0
OSGOWOO1,1258.0,Osgoode at Woodrow EB - #1258,,42.938591,-81.206426,,,,,,0
OSGOWOO2,1259.0,Osgoode at Woodrow WB - #1259,,42.938269,-81.206641,,,,,,0
OXFOADE1,1260.0,Oxford at Adelaide EB - #1260,,42.99992,-81.237831,,,,,,0
OXFOANDR,1262.0,Oxford at St. Andrews EB - #1262,,42.992511,-81.262967,,,,,,0
OXFOBEA1,1263.0,Oxford at Beaverbrook EB - #1263,,42.987116,-81.281374,,,,,,0
OXFOBEA2,1264.0,Oxford west of Beaverbrook WB - #1264,,42.986398,-81.284148,,,,,,0
OXFOBEA4,1265.0,Oxford east of Beaverbrook WB - #1265,,42.987331,-81.280986,,,,,,0
OXFOBRI1,1266.0,Oxford at Britannia EB - #1266,,42.989831,-81.272053,,,,,,0
OXFOCAP1,1268.0,Oxford at Capulet Lane EB - #1268,,42.982657,-81.296316,,,,,,0
OXFOCAP2,1269.0,Oxford at Capulet Lane WB - #1269,,42.983137,-81.295367,,,,,,0
OXFOCHE1,1270.0,Chelsey Park Retirement Home - #1270,,42.988137,-81.277858,,,,,,0
OXFOCHE2,1271.0,Oxford at Cherryhill Blvd WB - #1271,,42.988906,-81.275677,,,,,,0
OXFOCHE3,1272.0,Oxford at Cherryhill Blvd EB - #1272,,42.988555,-81.276434,,,,,,0
OXFOCOL1,1280.0,Oxford at Colborne EB - #1280,,42.997644,-81.245728,,,,,,0
OXFOCOL2,1281.0,Oxford at Colborne WB - #1281,,42.997886,-81.245338,,,,,,0
OXFOFERN,1290.0,Oxford at Fernely WB - #1290,,42.991842,-81.26563,,,,,,0
OXFOGEO1,1298.0,Oxford at St. George EB - #1298,,42.994743,-81.255576,,,,,,0
OXFOGEO2,1299.0,Oxford at St. George WB - #1299,,42.994758,-81.255944,,,,,,0
OXFOGRAC,1303.0,Oxford & Grace St WB - #1303,,42.992617,-81.262911,,,,,,0
OXFOMAI1,1320.0,Oxford at Maitland EB - #1320,,42.998642,-81.242401,,,,,,0
OXFOMAI2,1321.0,Oxford at Maitland WB - #1321,,42.998552,-81.243088,,,,,,0
OXFOPLAT,1326.0,Oxford at Platts Lane WB - #1326,,42.989933,-81.272489,,,,,,0
OXFOPRO1,1327.0,Oxford at Proudfoot Lane EB - #1327,,42.985262,-81.287429,,,,,,0
OXFOPRO2,1328.0,Oxford at Proudfoot WB - #1328,,42.985491,-81.287381,,,,,,0
OXFORAT1,1331.0,Oxford at Rathowen EB - #1331,,42.990925,-81.268407,,,,,,0
OXFORAT2,1332.0,Oxford at Rathowen WB - #1332,,42.991005,-81.268365,,,,,,0
OXFORIC1,1333.0,Oxford at Richmond EB - #1333,,42.995586,-81.252763,,,,,,0
OXFORIC2,1334.0,Oxford at Richmond WB - #1334,,42.995433,-81.253762,,,,,,0
OXFOTAL1,1350.0,Oxford at Talbot EB - #1350,,42.993941,-81.258169,,,,,,0
OXFOTAL2,1351.0,Oxford at Talbot WB - #1351,,42.994224,-81.257846,,,,,,0
OXFOWAT1,1354.0,Oxford at Waterloo EB - #1354,,42.996846,-81.248395,,,,,,0
OXFOWAT2,1355.0,Oxford at Waterloo WB - #1355,,42.997142,-81.247865,,,,,,0
OXFOWEL1,1356.0,Oxford at Wellington EB - #1356,,42.996041,-81.251186,,,,,,0
OXFOWEL2,1357.0,Oxford at Wellington WB - #1357,,42.996245,-81.250872,,,,,,0
OXFOWHA1,1358.0,Oxford at Wharncliffe EB - #1358,,42.992073,-81.264464,,,,,,0
OXFOWHA2,1359.0,Oxford at Wharncliffe WB - #1359,,42.992133,-81.264637,,,,,,0
OXFOWIL1,1360.0,Oxford at William EB - #1360,,42.9993,-81.240156,,,,,,0
OXFOWIL2,1361.0,Oxford at William WB - #1361,,42.999381,-81.240321,,,,,,0
OXFOWON1,1363.0,Oxford at Wonderland EB - #1363,,42.984173,-81.29128,,,,,,0
OXFOWON2,1364.0,Oxford at Wonderland WB - #1364,,42.984031,-81.292317,,,,,,0
PARKMAEN,1373.0,Parkwood Hospital Main Entrance WB - #1373,,42.956426,-81.22502,,,,,,0
PARKWEC2,1376.0,Parkwood Hospital at  Western Counties Rd WB - #1376,,42.956614,-81.22348,,,,,,0
PLATCHE1,1389.0,Platts Lane at Cherryhill Place NB - #1389,,42.99222,-81.27299,,,,,,0
PLATCHE2,1390.0,Platts Lane at Cherryhill Place SB - #1390,,42.991966,-81.273038,,,,,,0
PLATOXF1,1391.0,Platts Lane at Oxford NB - #1391,,42.990499,-81.272074,,,,,,0
PLATOXF2,1392.0,Platts Lane at Oxford SB - #1392,,42.990316,-81.272041,,,,,,0
PLATTRO1,1393.0,Platts Lane at Trott NB - #1393,,42.995535,-81.274696,,,,,,0
PLATTRO2,1394.0,Platts Lane at Trott SB - #1394,,42.995009,-81.274594,,,,,,0
PONDAILS,1399.0,Pond Mills at Ailsa SB - #1399,,42.970378,-81.204489,,,,,,0
PONDBURL,1406.0,Pond Mills at Burlinton Gate NB - #1406,,42.963757,-81.201037,,,,,,0
PONDCLE1,1407.0,Pond Mills at Cleveland NB - #1407,,42.96746,-81.202057,,,,,,0
PONDCLE2,1408.0,Pond Mills at Cleveland SB - #1408,,42.967599,-81.202236,,,,,,0
PONDCOMM,1409.0,Pond Mills at Commissioners NB - #1409,,42.962133,-81.200663,,,,,,0
PONDDEV2,1410.0,Pond Mills north of Deveron SB - #1410,,42.960494,-81.200409,,,,,,0
PONDEGER,1412.0,Pond Mills atThompson NB - #1412,,42.97274,-81.209805,,,,,,0
PONDOLDH,1419.0,Pond Mills at Commissioners NB - #1419,,42.960678,-81.200278,,,,,,0
PONDSCE1,1421.0,Pond Mills at Scenic NB - #1421,,42.971897,-81.207463,,,,,,0
PONDSCE4,1422.0,Pond Mills south of Scenic SB - #1422,,42.971741,-81.207216,,,,,,0
PROUBEA1,1423.0,Proudfoot at Beaverbrook EB - #1423,,42.984089,-81.281458,,,,,,0
PROUBEA2,1424.0,Proudfoot at Beaverbrook WB - #1424,,42.984185,-81.28149,,,,,,0
PROUBEA3,1425.0,Proudfoot at Beaverbrook SB - #1425,,42.989486,-81.290155,,,,,,0
PROUFAR1,1427.0,Proudfoot north of Farrah NB - #1427,,42.988837,-81.289729,,,,,,0
PROUFAR2,1428.0,Proudfoot at Farrah SB - #1428,,42.98627,-81.288546,,,,,,0
PROUFAR3,1429.0,Proudfoot at Farrah NB - #1429,,42.987136,-81.288882,,,,,,0
PROUOXF1,1430.0,Proudfoot north of Oxford NB - #1430,,42.9861,-81.288366,,,,,,0
PROUOXF2,1431.0,Proudfoot at Oxford SB - #1431,,42.984805,-81.287837,,,,,,0
PROUOXF3,1432.0,Proudfoot south of Oxford NB - #1432,,42.984669,-81.28764,,,,,,0
QUEBDUFF,1434.0,Quebec at Dufferin SB - #1434,,42.99448,-81.219981,,,,,,0
QUEBDUND,1435.0,Quebec at Dundas NB - #1435,,42.992891,-81.219093,,,,,,0
QUEBELI1,1436.0,Quebec at Elias NB - #1436,,42.997177,-81.221188,,,,,,0
QUEBELI2,1437.0,Quebec at Elias SB - #1437,,42.996906,-81.221212,,,,,,0
QUEBLOR1,1438.0,Quebec at Lorne NB - #1438,,42.995928,-81.220581,,,,,,0
QUEBLOR2,1439.0,Quebec at Lorne SB - #1439,,42.995327,-81.220397,,,,,,0
QUEBQUEE,1441.0,Quebec at Queens NB - #1441,,42.993921,-81.219616,,,,,,0
QUEECLAR,1442.0,Queens at Clarence WB - #1442,,42.98586,-81.247506,,,,,,0
QUENRIDO,1443.0,Queens at Ridout WB - #1443,,42.98368,-81.254207,,,,,,0
RICHCENT,1463.0,Richmond at Central SB - #1463,,42.990176,-81.250873,,,,,,0
RICHDUF2,1467.0,Richmond at Dufferin SB - #1467,,42.98696,-81.250781,,,,,,0
RICHGREY,1475.0,Richmond at Grey SB - #1475,,42.976781,-81.246257,,,,,,0
RICHGRO2,1477.0,Richmond at Grosvenor SB - #1477,,42.999325,-81.255246,,,,,,0
RICHHOT1,1478.0,Richmond north of Horton NB - #1478,,42.979378,-81.247439,,,,,,0
RICHHOT2,1479.0,Richmond at Horton SB - #1479,,42.979296,-81.247519,,,,,,0
RICHHOT3,1480.0,Richmond south Horton NB - #1480,,42.978707,-81.247083,,,,,,0
RICHHYM1,1483.0,Richmond at Hyman NB - #1483,,42.991222,-81.250886,,,,,,0
RICHJAM1,1486.0,Richmond at St. James NB - #1486,,42.997499,-81.254137,,,,,,0
RICHJAM2,1487.0,Richmond at St. James SB - #1487,,42.997724,-81.254361,,,,,,0
RICHKEN1,1488.0,Richmond at Angel NB - #1488,,42.988374,-81.250678,,,,,,0
RICHKEN2,1489.0,Richmond at Kent SB - #1489,,42.988156,-81.250752,,,,,,0
RICHKIN1,1490.0,Richmond at King NB - #1490,,42.98234,-81.2489,,,,,,0
RICHMILL,1493.0,Richmond at Mill SB - #1493,,42.992941,-81.251948,,,,,,0
RICHOXF1,1494.0,Richmond at Oxford NB - #1494,,42.995977,-81.253301,,,,,,0
RICHOXF2,1495.0,Richmond at Oxford SB - #1495,,42.994909,-81.252915,,,,,,0
RICHPALL,1496.0,Richmond at Pall Mall NB - #1496,,42.992773,-81.251649,,,,,,0
RICHQUEE,1501.0,Richmond at Queens NB - #1501,,42.985269,-81.25034,,,,,,0
RICHSIM1,1509.0,Richmond at Simcoe NB - #1509,,42.977308,-81.246413,,,,,,0
RICHSIM2,1510.0,Richmond at Simcoe SB - #1510,,42.977941,-81.246863,,,,,,0
RIDOBAKE,1531.0,Ridout at Baker NB - #1531,,42.967407,-81.246257,,,,,,0
RIDOBAS1,1532.0,Ridout at Baseline NB - #1532,,42.960517,-81.242718,,,,,,0
RIDOBAS2,1533.0,Ridout at Baseline SB - #1533,,42.961246,-81.243171,,,,,,0
RIDOELMW,1539.0,Ridout at Elmwood SB - #1539,,42.972601,-81.248939,,,,,,0
RIDOEME1,1540.0,Ridout at Emery NB - #1540,,42.964715,-81.244873,,,,,,0
RIDOEME2,1541.0,Ridout at Emery SB - #1541,,42.965227,-81.245179,,,,,,0
RIDOHICK,1545.0,Ridout at Hickson NB - #1545,,42.962205,-81.243574,,,,,,0
RIDOKING,1549.0,Ridout at King SB - #1549,,42.982047,-81.253855,,,,,,0
RIDOMOU2,1553.0,Ridout at Mountsfiled SB - #1553,,42.959504,-81.242285,,,,,,0
RIDOROSE,1554.0,Ridout at Rosel SB - #1554,,42.962909,-81.244023,,,,,,0
RIDOTEC1,1555.0,Ridout at Tecumseh NB - #1555,,42.969427,-81.247221,,,,,,0
RIDOTEC2,1556.0,Ridout at Tecumseh SB - #1556,,42.969589,-81.247432,,,,,,0
RIDOWINS,1557.0,Ridout at Windsor SB - #1557,,42.967104,-81.246159,,,,,,0
RIDOYORK,1558.0,Ridout at York SB - #1558,,42.980443,-81.253033,,,,,,0
RIVEBEA1,1564.0,Riverside at Beaverbrook EB - #1564,,42.980089,-81.278145,,,,,,0
RIVEBEA2,1565.0,Riverside east of Beaverbrook WB - #1565,,42.981044,-81.276047,,,,,,0
RIVEBEA4,1566.0,Riverside west of Beaverbrook WB - #1566,,42.980225,-81.277985,,,,,,0
RIVEBRE1,1567.0,Riverside at Braemar EB - #1567,,42.977428,-81.286644,,,,,,0
RIVEBRE2,1568.0,Riverside at Braemar WB - #1568,,42.977418,-81.286814,,,,,,0
RIVEBRIT,1569.0,Riverside at Britannia WB - #1569,,42.982751,-81.271188,,,,,,0
RIVECAVE,1570.0,Riverside at Cavendish EB - #1570,,42.982955,-81.26652,,,,,,0
RIVEMTPL,1587.0,Riverside at Mt. Pleasant  WB - #1587,,42.983125,-81.26699,,,,,,0
RIVEMURD,1588.0,Riverside at Murdock EB - #1588,,42.98263,-81.271756,,,,,,0
RIVEORI1,1589.0,Riverside at Old Riverside EB - #1589,,42.978596,-81.283087,,,,,,0
RIVEORI2,1590.0,Riverside at Old Riverside WB - #1590,,42.978628,-81.283336,,,,,,0
RIVEWHA1,1600.0,Riverside at Wharncliffe EB - #1600,,42.982759,-81.26198,,,,,,0
RIVEWHA4,1601.0,Riverside West of Wharncliffe WB - #1601,,42.983051,-81.263566,,,,,,0
RIVEWIL1,1602.0,Riverside at Wilson EB - #1602,,42.982691,-81.25983,,,,,,0
RIVEWIL2,1603.0,Riverside at Wilson WB - #1603,,42.982815,-81.259629,,,,,,0
RIVEWON1,1604.0,Riverside at Wonderland EB - #1604,,42.976327,-81.289551,,,,,,0
RIVEWOO1,1606.0,Riverside at Woodward EB - #1606,,42.982944,-81.268758,,,,,,0
RIVEWOO2,1607.0,Riverside at Woodward WB - #1607,,42.983031,-81.269268,,,,,,0
ROXBWEL2,1608.0,Roxburgh at Wellington WB - #1608,,42.919249,-81.207311,,,,,,0
SALIQUEB,1617.0,Salisbury at Quebec EB - #1617,,42.999937,-81.222027,,,,,,0
SANDVER1,1625.0,Sandringham at Verulam EB - #1625,,42.9482,-81.23162,,,,,,0
SANDVER2,1626.0,Sandringham at Verulam WB - #1626,,42.948212,-81.231745,,,,,,0
SANDWIL2,1627.0,Sandringham at Wilkins SB - #1627,,42.948826,-81.234216,,,,,,0
SANDWIL4,1628.0,Sandringham at Wilkins WB - #1628,,42.948943,-81.234219,,,,,,0
SARNCAS1,1638.0,Sarnia at Wonderland EB - #1638,,42.995637,-81.297882,,,,,,0
SARNCAS3,1639.0,Sarnia at Castlegrove Blvd  2 EB - #1639,,42.998833,-81.287041,,,,,,0
SARNLEYT,1641.0,Sarnia at Leyton WB - #1641,,42.997241,-81.293041,,,,,,0
SARNRIPP,1643.0,Sarnia at Rippleton Ave EB - #1643,,42.997194,-81.292838,,,,,,0
SARNSLEI,1644.0,Sarnia at Sleightholme WB - #1644,,42.998918,-81.287283,,,,,,0
SHELBUR2,1656.0,Shelbourne at Burlington Gate SB - #1656,,42.963197,-81.200141,,,,,,0
SHOLEXE1,1658.0,Sholto at Exeter NB - #1658,,42.925738,-81.225438,,,,,,0
SHOLEXE2,1659.0,Sholto at Exeter SB - #1659,,42.925398,-81.225474,,,,,,0
SHOLJAL1,1660.0,Sholto at Jalna Blvd NB - #1660,,42.926831,-81.226266,,,,,,0
SHOLJAL2,1661.0,Jalna at Archer N Leg SB - #1661,,42.927482,-81.226401,,,,,,0
SOUTADE1,1666.0,Southdale & Adelaide EB - #1666,,42.944433,-81.21403,,,,,,0
SOUTADE2,1667.0,Southdale at Adelaide WB - #1667,,42.944488,-81.215236,,,,,,0
SOUTAND1,1668.0,Southdale at Andover EB - #1668,,42.93949,-81.273187,,,,,,0
SOUTAND2,1669.0,Southdale at Andover  WB - #1669,,42.939725,-81.273089,,,,,,0
SOUTBEA1,1670.0,Southcrest at Beachwood EB - #1670,,42.964424,-81.276425,,,,,,0
SOUTDUL1,1673.0,Southdale at Dulaney Dr. EB - #1673,,42.942115,-81.24042,,,,,,0
SOUTDUL2,1674.0,Southdale at Dulaney WB - #1674,,42.942263,-81.240731,,,,,,0
SOUTDUN2,1675.0,Southdale at Dundalk WB - #1675,,42.941979,-81.244486,,,,,,0
SOUTEAS2,1678.0,Southdale at Easy WB - #1678,,42.942993,-81.232317,,,,,,0
SOUTHOME,1680.0,Southdale at Homeview WB - #1680,,42.941369,-81.251878,,,,,,0
SOUTJAL1,1681.0,Southdale East of Jalna Blvd EB - #1681,,42.941877,-81.242985,,,,,,0
SOUTKOR1,1683.0,Southdale at Koru Crt EB - #1683,,42.94568,-81.200586,,,,,,0
SOUTKOR2,1684.0,Southdale at Koru Crt WB - #1684,,42.945718,-81.200797,,,,,,0
SOUTMIL1,1685.0,Southdale at Millbank Dr E EB - #1685,,42.945247,-81.205007,,,,,,0
SOUTMIL2,1686.0,Southdale East of Millbank WB - #1686,,42.945472,-81.203992,,,,,,0
SOUTMIL3,1687.0,St Francis Elementary School EB - #1687,,42.944869,-81.209276,,,,,,0
SOUTMIL4,1688.0,964 Southdale WB - #1688,,42.944983,-81.209328,,,,,,0
SOUTMIL5,1689.0,Southdale at Millbank Dr West EB - #1689,,42.944622,-81.212057,,,,,,0
SOUTMIL6,1690.0,Southdale West of Millbank WB - #1690,,42.944705,-81.212499,,,,,,0
SOUTERNE,1691.0,Southdale at Ernest St EB - #1691,,42.942535,-81.236357,,,,,,0
SOUTNIX1,1691.0,Southdale at Nixon EB - #1691,,42.942378,-81.237243,,,,,,0
SOUTNIX2,1692.0,Southdale at Nixon WB - #1692,,42.942523,-81.237558,,,,,,0
SOUTNOD1,1694.0,Southdale West of Notre Dame Dr  EB - #1694,,42.940031,-81.266737,,,,,,0
SOUTNOD2,1695.0,Southdale East of Notre Dame WB - #1695,,42.940325,-81.264321,,,,,,0
SOUTNOD4,1696.0,Southdale West of Notre Dame WB - #1696,,42.940115,-81.267119,,,,,,0
SOUTVER1,1700.0,Southdale at Verulam EB - #1700,,42.943068,-81.229588,,,,,,0
SOUTVER2,1701.0,Southdale at Verulam WB - #1701,,42.943186,-81.230062,,,,,,0
SOUTWATE,1702.0,South at Waterloo St EB - #1702,,42.976051,-81.23789,,,,,,0
SOUTWEL1,1703.0,Southdale at Wellington EB - #1703,,42.94359,-81.224377,,,,,,0
SOUTWEL2,1704.0,Southdale at Wellington  WB - #1704,,42.943796,-81.224327,,,,,,0
SOUTWEL3,1705.0,South at Wellington St EB - #1705,,42.975453,-81.24009,,,,,,0
SOUTWHA1,1706.0,Southdale West of Wharncliffe  EB - #1706,,42.940606,-81.258723,,,,,,0
SOUTWHA2,1707.0,Southdale West of Wharncliffe WB - #1707,,42.940725,-81.259235,,,,,,0
SOUTWHA3,1708.0,Southdale East of Wharncliffe EB - #1708,,42.940758,-81.256515,,,,,,0
SOUTWHA4,1709.0,Southdale East of Wharncliffe WB - #1709,,42.940992,-81.255824,,,,,,0
SOUTWHOK,1710.0,Southdale at White Oak Sideroad EB - #1710,,42.941189,-81.251447,,,,,,0
SOUTWIL1,1711.0,Southdale at Willow Dr EB - #1711,,42.943924,-81.220704,,,,,,0
SOUTWIL2,1712.0,Southdale at Willow WB - #1712,,42.943993,-81.220942,,,,,,0
SOUTWON1,1713.0,Southdale at Wonderland EB - #1713,,42.938977,-81.280693,,,,,,0
SOUTWON2,1714.0,Southdale at Wonderland  WB - #1714,,42.939343,-81.278838,,,,,,0
SPRIBER1,1728.0,Springbank at Berkshire Dr FS 1 EB - #1728,,42.964565,-81.290752,,,,,,0
SPRIBER3,1729.0,492 Springbank EB - #1729,,42.966105,-81.28766,,,,,,0
SPRIBER4,1730.0,Springbank at Berkshire WB - #1730,,42.964413,-81.291526,,,,,,0
SPRICHEL,1732.0,Springbank at Chelsea WB - #1732,,42.971031,-81.27803,,,,,,0
SPRIGRE1,1735.0,Springbank at Greenside EB - #1735,,42.973233,-81.273206,,,,,,0
SPRIGRE2,1736.0,Springbank at Greenside WB - #1736,,42.97379,-81.272368,,,,,,0
SPRIGROW,1737.0,Springbank at Greenwood EB - #1737,,42.971006,-81.277714,,,,,,0
SPRIJAR1,1740.0,Springbank at Jarvis St EB - #1740,,42.960397,-81.299607,,,,,,0
SPRIKER1,1742.0,Springbank at Kernohan Parkway EB - #1742,,42.969358,-81.281031,,,,,,0
SPRIKER2,1743.0,Springbank at Kernohan Pkwy WB - #1743,,42.969429,-81.281274,,,,,,0
SPRIMAR1,1744.0,Springbank at Mary Ave EB - #1744,,42.967616,-81.284642,,,,,,0
SPRIMAR2,1745.0,Springbank at Mary Ave WB - #1745,,42.968086,-81.283962,,,,,,0
SPRIQUI1,1746.0,Springbank at Quinella EB - #1746,,42.961586,-81.2971,,,,,,0
SPRIQUI2,1747.0,Springbank at Quinella WB - #1747,,42.961707,-81.297108,,,,,,0
SPRISPRI,1748.0,Springbank at Springbank EB - #1748,,42.975016,-81.270079,,,,,,0
SPRITROW,1749.0,Springbank at Trowbridge WB - #1749,,42.967187,-81.285715,,,,,,0
SPRIWON1,1754.0,Springbank at Wonderland  EB - #1754,,42.96374,-81.292535,,,,,,0
SPRIWON2,1755.0,Springbank at Wonderland  WB - #1755,,42.96345,-81.293513,,,,,,0
STANPERR,1758.0,Stanley at Perry EB - #1758,,42.978172,-81.259762,,,,,,0
STANWHAR,1759.0,Stanley at Wharncliffe EB - #1759,,42.977719,-81.261462,,,,,,0
STANWORT,1760.0,Stanley at Wortley EB - #1760,,42.978927,-81.257107,,,,,,0
THOMADE1,1776.0,Princess Elizabeth Elementary School EB - #1776,,42.968377,-81.221932,,,,,,0
THOMADE2,1777.0,Thompson at Adelaide WB - #1777,,42.968275,-81.223112,,,,,,0
THOMCHE1,1779.0,Thompson at Chesterfield  EB - #1779,,42.969255,-81.216183,,,,,,0
THOMCHE2,1780.0,Thompson at Chesterfield  WB - #1780,,42.969298,-81.21699,,,,,,0
THOMEME1,1781.0,Thompson at Emerson  EB - #1781,,42.968937,-81.219792,,,,,,0
THOMGLA1,1783.0,Thompson at Gladstone Ave EB - #1783,,42.969382,-81.21484,,,,,,0
THOMGLA2,1784.0,Thompson at GladstoneWB - #1784,,42.969463,-81.214921,,,,,,0
THOMJACQ,1785.0,Thompson at Jacqueline WB - #1785,,42.969025,-81.2199,,,,,,0
THOMKED1,1786.0,Thompson at King Edward EB - #1786,,42.96964,-81.212344,,,,,,0
THOMKED2,1787.0,Thompson at King Edward  WB - #1787,,42.969612,-81.213279,,,,,,0
UPPECHI4,1825.0,Upper Queens North of Chiddington SB - #1825,,42.95352,-81.240689,,,,,,0
UPPECOM1,1826.0,Upper Queens at Commissioners Rd NB - #1826,,42.957458,-81.241439,,,,,,0
UPPECOM2,1827.0,Upper Queens at Commissioners Rd SB - #1827,,42.957062,-81.24153,,,,,,0
VALECAYL,1833.0,Valetta at Cayley Dr WB - #1833,,42.976208,-81.295904,,,,,,0
VALEOAKR,1841.0,Valetta at Oakridge Dr EB - #1841,,42.976409,-81.294914,,,,,,0
VALESHR1,1847.0,Valetta at Shrene Terrace EB - #1847,,42.975006,-81.299449,,,,,,0
VALESHR2,1848.0,Valetta at Shrene Terrace WB - #1848,,42.975439,-81.29854,,,,,,0
VERUEDEN,1852.0,Verulam at Eden SB - #1852,,42.947258,-81.231175,,,,,,0
VICTCOMM,1854.0,Victoria Hospital at Commissioners NB - #1854,,42.959454,-81.223182,,,,,,0
VICTLOT9,1855.0,Victoria Hospital Cancer Centre SB - #1855,,42.959952,-81.228915,,,,,,0
VICTMUBU,1856.0,Victoria Hospital at Medical Unit Building - #1856,,42.961257,-81.221941,,,,,,0
VICTWES1,1857.0,Victoria Hospital at Western Counties EB - #1857,,42.959117,-81.223662,,,,,,0
VICTZONB,1859.0,Victoria Hospital & Baseline Rd Ent WB - #1859,,42.961443,-81.226937,,,,,,0
VISCCOM2,1872.0,Viscount AT Commissioners SB - #1872,,42.955816,-81.269168,,,,,,0
VISCFARN,1874.0,Viscount at Farnham Rd WB - #1874,,42.945708,-81.295842,,,,,,0
VISCFOXM,1875.0,Viscount at Foxmill Cr WB - #1875,,42.947583,-81.284005,,,,,,0
VISCGAL1,1876.0,Viscount at Galloway Cr FS NB - #1876,,42.95146,-81.268015,,,,,,0
VISCGAL2,1877.0,Viscount South of Galloway Cr SB - #1877,,42.950234,-81.268816,,,,,,0
VISCGAL3,1878.0,Viscount at Galloway Cr NS NB - #1878,,42.949847,-81.269034,,,,,,0
VISCGARD,1879.0,Viscount at Gardenvale WB - #1879,,42.947631,-81.280906,,,,,,0
VISCPIVA,1883.0,Viscount at Pine Valley Dr EB - #1883,,42.947553,-81.280877,,,,,,0
VISCSTEE,1884.0,Viscount at Steeplechase EB - #1884,,42.947528,-81.283968,,,,,,0
VISCTAV1,1885.0,Viscount at Tavistock Rd NB - #1885,,42.953716,-81.268278,,,,,,0
VISCTAV2,1886.0,Viscount at Tavistock Rd 1 SB - #1886,,42.95324,-81.268281,,,,,,0
VISCVIGR,1888.0,Viscount at Village Green WB - #1888,,42.944876,-81.299283,,,,,,0
VISCWON1,1889.0,Saunders Secondary School EB - #1889,,42.946666,-81.291751,,,,,,0
VISCWON2,1890.0,Viscount East of Wonderland WB - #1890,,42.947195,-81.288537,,,,,,0
VISCWON3,1891.0,Viscount East of Wonderland EB - #1891,,42.947173,-81.288021,,,,,,0
VISCWON5,1893.0,Viscount West of Wonderland EB - #1893,,42.946911,-81.289895,,,,,,0
WELLALEX,1922.0,Wellington & Alexandra St NB - #1922,,42.967398,-81.232396,,,,,,0
WELLBAS1,1923.0,Wellington at South of BaselineNB - #1923,,42.961193,-81.230777,,,,,,0
WELLBAS2,1924.0,Wellington at Baseline SB - #1924,,42.961977,-81.231306,,,,,,0
WELLBOND,1925.0,Wellington at Bond  NB - #1925,,42.968858,-81.234644,,,,,,0
WELLBRA1,1926.0,Wellington North of Bradley  NB - #1926,,42.935398,-81.223745,,,,,,0
WELLBRA2,1927.0,Wellington at Bradley  SB - #1927,,42.933922,-81.223468,,,,,,0
WELLCHES,1929.0,Wellington at Chester NB - #1929,,42.96436,-81.231661,,,,,,0
WELLCOLG,1930.0,Wellington at Colgrove Pl SB - #1930,,42.970156,-81.236499,,,,,,0
WELLCOM1,1931.0,Wellington at Commissioners NB - #1931,,42.958872,-81.230199,,,,,,0
WELLCOM4,1933.0,Wellington South of Commissioners SB - #1933,,42.957854,-81.230256,,,,,,0
WELLCRES,1934.0,Wellington at Creston Ave NB - #1934,,42.946286,-81.227132,,,,,,0
WELLDEAR,1935.0,Wellington at Dearness NB - #1935,,42.929847,-81.219712,,,,,,0
WELLDUN3,1939.0,Wellington South of Dundas St NB - #1939,,42.984487,-81.244884,,,,,,0
WELLEXE1,1940.0,Wellington at Exeter NB - #1940,,42.926829,-81.217786,,,,,,0
WELLEXE2,1941.0,Wellington at Exeter SB - #1941,,42.927087,-81.2183,,,,,,0
WELLGRA1,1942.0,Wellington at Grand Ave NB - #1942,,42.972393,-81.238086,,,,,,0
WELLGRA2,1943.0,Wellington at Grand SB - #1943,,42.972119,-81.23806,,,,,,0
WELLGRE2,1945.0,Wellington at Grey SB - #1945,,42.977378,-81.241642,,,,,,0
WELLHOR1,1947.0,Wellington North of Horton NB - #1947,,42.98049,-81.242866,,,,,,0
WELLMCL1,1950.0,Wellington at McClary AVE NB - #1950,,42.970589,-81.236686,,,,,,0
WELLMON1,1952.0,Wellington at Montgomery Gate NB - #1952,,42.939082,-81.224643,,,,,,0
WELLMON2,1953.0,Wellington South of Montgomery Gate SB - #1953,,42.936868,-81.224381,,,,,,0
WELLMON4,1954.0,Wellington North of Montgomery G.t SB - #1954,,42.939705,-81.225036,,,,,,0
WELLNAD1,1956.0,705 Wellington SB - #1956,,42.94844,-81.228036,,,,,,0
WELLNADI,1957.0,Wellington at Creston SB - #1957,,42.946946,-81.227657,,,,,,0
WELLPERC,1958.0,Wellington at Percy SB - #1958,,42.963536,-81.231625,,,,,,0
WELLSDA1,1963.0,Wellington South of Southdale NB - #1963,,42.942563,-81.225428,,,,,,0
WELLSDA2,1964.0,Wellington at Southdale SB - #1964,,42.944319,-81.226408,,,,,,0
WELLSDA3,1965.0,Wellington North of Southdale Rd NB - #1965,,42.944743,-81.22623,,,,,,0
WELLSOU2,1969.0,Wellington at South SB - #1969,,42.975173,-81.240561,,,,,,0
WELLTHJA,1970.0,Wellington at Thomas Janes SB - #1970,,42.965569,-81.232118,,,,,,0
WELLWAT1,1971.0,Wellington at Waterman NB - #1971,,42.956452,-81.229685,,,,,,0
WELLWAT2,1972.0,Wellington at Waterman SB - #1972,,42.954466,-81.229486,,,,,,0
WELLWELL,1974.0,Wellington at Wellington Cres SB - #1974,,42.968432,-81.234085,,,,,,0
WELLWIL1,1975.0,Wellington South of Wilkins St NB - #1975,,42.951107,-81.228451,,,,,,0
WELLWIL3,1977.0,Wellington North of Wilkins NB - #1977,,42.9546,-81.229335,,,,,,0
WELLWIL4,1978.0,Wellington South of Wilkins SB - #1978,,42.951023,-81.228688,,,,,,0
WELLYOR1,1979.0,Wellington at York NB - #1979,,42.982917,-81.244106,,,,,,0
WELLYOR2,1980.0,Wellington at York SB - #1980,,42.982963,-81.244483,,,,,,0
WESTBAS1,1985.0,Westminster at Baseline Rd NB - #1985,,42.964112,-81.224824,,,,,,0
WESTBAS2,1986.0,Westminster at Baseline Rd SB - #1986,,42.964256,-81.22495,,,,,,0
WESTESSE,1991.0,Western at Essex St NB - #1991,,42.995468,-81.266679,,,,,,0
WESTHOL1,1992.0,Western at Hollywood Cres NB - #1992,,42.996215,-81.27057,,,,,,0
WESTHOL2,1993.0,Western at Hollywood Crt SB - #1993,,42.996161,-81.27083,,,,,,0
WESTMAL1,1997.0,Westmount Mall at Stop 1 - #1997,,42.947415,-81.29255,,,,,,0
WESTMAL2,1998.0,Westmount Mall at Stop 2 - #1998,,42.947407,-81.292334,,,,,,0
WESTMAL3,1999.0,Westmount Mall at Stop 3 - #1999,,42.947484,-81.292059,,,,,,0
WESTPLA1,2001.0,Western at Platts Lane NB - #2001,,42.996613,-81.274624,,,,,,0
WESTPLA2,2002.0,Western at Platts Lane SB - #2002,,42.996341,-81.274171,,,,,,0
WESTSAR4,2004.0,Althouse College - #2004,,42.999141,-81.276379,,,,,,0
WESTWHE1,2007.0,Westminster at Whetter Ave NB - #2007,,42.965611,-81.225135,,,,,,0
WESTWHE2,2008.0,Westminster at Whetter Ave SB - #2008,,42.966196,-81.225409,,,,,,0
WHARBAS1,2015.0,Wharncliffe & Base Line FS NB - #2015,,42.959796,-81.261022,,,,,,0
WHARBAS2,2016.0,Wharncliffe at BaseLine NS SB - #2016,,42.959545,-81.261148,,,,,,0
WHARBYR1,2022.0,Wharncliffe at Byron NB - #2022,,42.973704,-81.262004,,,,,,0
WHARBYR2,2023.0,Wharncliffe at Byron  SB - #2023,,42.974058,-81.262197,,,,,,0
WHARCENT,2024.0,Wharncliffe at Center SB - #2024,,42.961302,-81.261271,,,,,,0
WHARCOM1,2026.0,Wharncliffe at Commissioners NB - #2026,,42.957951,-81.260699,,,,,,0
WHARCOM2,2027.0,Wharncliffe at Commissioners SB - #2027,,42.957599,-81.260802,,,,,,0
WHARDEVO,2029.0,Wharncliffe at Devonshire  NB - #2029,,42.962375,-81.2612,,,,,,0
WHARELM1,2031.0,Wharncliffe at Elmwood NB - #2031,,42.969997,-81.261765,,,,,,0
WHARELM2,2032.0,Wharncliffe at Elmwood SB - #2032,,42.970327,-81.261912,,,,,,0
WHAREME1,2033.0,Wharncliffe at Emery NB - #2033,,42.964157,-81.261322,,,,,,0
WHAREME2,2034.0,Wharncliffe at Emery SB - #2034,,42.963383,-81.261459,,,,,,0
WHAREMPR,2035.0,Wharncliffe at Blackfriars NB - #2035,,42.989011,-81.263182,,,,,,0
WHAREUCL,2037.0,Wharncliffe at Euclid NB - #2037,,42.97506,-81.262093,,,,,,0
WHARLEXI,2041.0,Wharncliffe at Lexington  SB - #2041,,42.986463,-81.263031,,,,,,0
WHARMCDO,2042.0,Western at Essex SB - #2042,,42.995329,-81.266835,,,,,,0
WHARMOIR,2043.0,Wharncliffe at Moir NB - #2043,,42.986267,-81.262822,,,,,,0
WHARMPL1,2044.0,Wharncliffe at Mount Pleasant NB - #2044,,42.984451,-81.262743,,,,,,0
WHARMPL2,2045.0,Wharncliffe at Mt. Pleasant Ave SB - #2045,,42.984249,-81.262931,,,,,,0
WHAROXF1,2046.0,Wharncliffe at Oxford NB - #2046,,42.992239,-81.264852,,,,,,0
WHAROXF2,2047.0,Wharncliffe at Oxford SB - #2047,,42.992144,-81.265068,,,,,,0
WHARPAUL,2049.0,Wharncliffe at Paul SB - #2049,,42.98908,-81.263431,,,,,,0
WHARRIG1,2050.0,Wharncliffe at The Ridgeway NB - #2050,,42.979274,-81.262382,,,,,,0
WHARRIG2,2051.0,Wharncliffe at The Ridgeway SB - #2051,,42.979557,-81.262542,,,,,,0
WHARTEC1,2054.0,Wharncliffe at Tecumseh NB - #2054,,42.967274,-81.261544,,,,,,0
WHARTEC2,2055.0,Wharncliffe at Tecumseh SB - #2055,,42.967059,-81.261704,,,,,,0
WHARWDAL,2056.0,Wharncliffe at Westdale SB - #2056,,42.944526,-81.257707,,,,,,0
WHARWYAT,2057.0,Wharncliffe at Wyatt SB - #2057,,42.982171,-81.26279,,,,,,0
WHITOMA3,2060.0,White Oaks Mall Stop 3 - #2060,,42.932033,-81.222974,,,,,,0
WHITOMA1,2061.0,White Oaks Mall Stop 1 - #2061,,42.931378,-81.22283,,,,,,0
WHITOMA2,2062.0,White Oaks Mall Stop 2 - #2062,,42.931714,-81.222633,,,,,,0
WHITOMA4,2063.0,White Oaks Mall Stop 4 - #2063,,42.932158,-81.223251,,,,,,0
WILKCHI1,2066.0,Wilkins at Chiddington Gate NB - #2066,,42.950843,-81.234488,,,,,,0
WILKCHI2,2067.0,Wilkins at Chiddington Gate SB - #2067,,42.951127,-81.234432,,,,,,0
WILLDEAR,2068.0,Willow at Dearness EB - #2068,,42.938624,-81.220898,,,,,,0
WILLOSG1,2069.0,Willow at Osgoode  EB - #2069,,42.938917,-81.218758,,,,,,0
WILLOSG2,2070.0,Willow at Osgoode WB - #2070,,42.93894,-81.218681,,,,,,0
WILTSIS4,2075.0,Wilton Grove at Sise Rd WB - #2075,,42.927417,-81.201219,,,,,,0
WONDBEA1,2097.0,Wonderland at Beaverbrook NB - #2097,,42.99006,-81.295692,,,,,,0
WONDBEA2,2098.0,Wonderland at Beaverbrook Ave SB - #2098,,42.989438,-81.295648,,,,,,0
WONDCOM1,2100.0,Wonderland South of Commissioners NB - #2100,,42.95344,-81.290359,,,,,,0
WONDCOM2,2101.0,Wonderland at Commissioners SB - #2101,,42.953736,-81.290681,,,,,,0
WONDCOM3,2102.0,Wonderland North of Commissioners NB - #2102,,42.955837,-81.290977,,,,,,0
WONDFAR1,2103.0,Wonderland at Costco South Entrance NB - #2103,,42.986003,-81.293578,,,,,,0
WONDFAR2,2104.0,Wonderland North of Farrah SB - #2104,,42.985811,-81.293766,,,,,,0
WONDFAR3,2105.0,Wonderland North of Farrah NB - #2105,,42.987627,-81.294437,,,,,,0
WONDFAR4,2106.0,Wonderland North of Farrah Rd SB - #2106,,42.987043,-81.294428,,,,,,0
WONDKIW1,2108.0,Wonderland at Kingsway  NB - #2108,,42.97895,-81.29008,,,,,,0
WONDKIW2,2109.0,Wonderland at Kingsway Ave SB - #2109,,42.979114,-81.290392,,,,,,0
WONDMMA1,2111.0,Wonderland North of McMaster NB - #2111,,42.943955,-81.287721,,,,,,0
WONDMMA2,2112.0,Wonderland South of McMaster SB - #2112,,42.942987,-81.2865,,,,,,0
WONDMMA3,2113.0,Wonderland South of McMaster NB - #2113,,42.942913,-81.285326,,,,,,0
WONDMMA4,2114.0,Wonderland North of McMaster SB - #2114,,42.944487,-81.288397,,,,,,0
WONDOXF1,2115.0,Wonderland North of Oxford  NB - #2115,,42.98418,-81.292694,,,,,,0
WONDOXF2,2116.0,Wonderland North of Oxford SB - #2116,,42.984199,-81.292946,,,,,,0
WONDOXF3,2117.0,Wonderland at Oxford St NB - #2117,,42.982517,-81.29182,,,,,,0
WONDOXF4,2118.0,Wonderland South of Oxford SB - #2118,,42.981865,-81.29174,,,,,,0
WONDPVA1,2119.0,Wonderland at PineValley Gate NB - #2119,,42.942462,-81.283426,,,,,,0
WONDPVA2,2120.0,Wonderland at Pine Valley Blvd SB - #2120,,42.942327,-81.283654,,,,,,0
WONDPVA4,2121.0,Wonderland at  PineValley Lane SB - #2121,,42.941199,-81.28219,,,,,,0
WONDRIV1,2122.0,Wonderland at Riverside NB - #2122,,42.976791,-81.289775,,,,,,0
WONDRIV2,2123.0,Wonderland at Riverside Dr SB - #2123,,42.976033,-81.290474,,,,,,0
WONDROSE,2124.0,Wonderland at Rosecliffe Terr. SB - #2124,,42.959528,-81.293657,,,,,,0
WONDSAR1,2125.0,Sarnia at Wonderland WB - #2125,,42.995739,-81.29845,,,,,,0
WONDSDA1,2128.0,Wonderland at Southdale NB - #2128,,42.939594,-81.281397,,,,,,0
WONDSPR1,2132.0,Wonderland at Springbank NB - #2132,,42.964403,-81.293102,,,,,,0
WONDTEE1,2134.0,Wonderland at Teeple Terrance NB - #2134,,42.959046,-81.293315,,,,,,0
WONDVIL1,2135.0,Wonderland at Village Green NB - #2135,,42.95074,-81.289716,,,,,,0
WONDVIL2,2136.0,Wonderland at VillageGreen Ave SB - #2136,,42.951463,-81.290115,,,,,,0
WONDVIS2,2138.0,Wonderland at Viscount NS1 SB - #2138,,42.948855,-81.289568,,,,,,0
WONDVIS3,2139.0,780 Wonderland Rd NB - #2139,,42.948946,-81.289303,,,,,,0
WOODCAM1,2140.0,Woodward at Cambridge NB - #2140,,42.988255,-81.270527,,,,,,0
WOODCAM2,2141.0,Woodward at Cambridge SB - #2141,,42.988327,-81.270649,,,,,,0
WOODEDI1,2142.0,Woodward at Edinburgh  NB - #2142,,42.986836,-81.269791,,,,,,0
WOODEDI2,2143.0,Woodward at Edinburgh SB - #2143,,42.986627,-81.269737,,,,,,0
WOODRIVE,2144.0,Woodward at Riverside  NB - #2144,,42.983507,-81.269484,,,,,,0
WOODTOZ2,2146.0,Woodward at Tozer Ave SB - #2146,,42.984804,-81.269627,,,,,,0
YORKADE1,2154.0,York at Adelaide EB - #2154,,42.986345,-81.230015,,,,,,0
YORKADE2,2155.0,York at Adelaide WB - #2155,,42.986415,-81.230103,,,,,,0
YORKCOL1,2157.0,York at Colborne EB - #2157,,42.984043,-81.238324,,,,,,0
YORKCOL2,2158.0,York at Colborne WB - #2158,,42.98405,-81.23898,,,,,,0
YORKLYL1,2161.0,York at Lyle EB - #2161,,42.987086,-81.227262,,,,,,0
YORKLYL2,2162.0,York at Lyle WB - #2162,,42.986971,-81.228111,,,,,,0
YORKMAI1,2163.0,York at Maitland EB - #2163,,42.984718,-81.235931,,,,,,0
YORKMAI2,2164.0,York at Maitland WB - #2164,,42.98496,-81.23544,,,,,,0
YORKREC1,2165.0,York at Rectory EB - #2165,,42.987526,-81.222993,,,,,,0
YORKREC2,2166.0,York at Rectory WB - #2166,,42.987914,-81.22394,,,,,,0
YORKTHA1,2170.0,York at Thames EB - #2170,,42.979448,-81.255056,,,,,,0
YORKTHA2,2171.0,York at Thames WB - #2171,,42.979536,-81.255353,,,,,,0
YORKWAT1,2172.0,York at Waterloo EB - #2172,,42.983467,-81.240461,,,,,,0
YORKWAT2,2173.0,York at Waterloo WB - #2173,,42.983498,-81.240776,,,,,,0
YORKWIL1,2175.0,York at William EB - #2175,,42.985372,-81.233601,,,,,,0
YORKWIL2,2176.0,York at William WB - #2176,,42.985708,-81.232685,,,,,,0
ADELLEA7,2185.0,Adelaide north of Leathorne 3 NB - #2185,,42.965978,-81.221654,,,,,,0
BASEWHA1,2194.0,Base Line at Wharncliffe EB - #2194,,42.959332,-81.259828,,,,,,0
BERKBER1,2195.0,Berkshire at Berkshire Place NB - #2195,,42.962777,-81.288488,,,,,,0
BERKBER2,2196.0,Berkshire at Berkshire Place SB - #2196,,42.962676,-81.288377,,,,,,0
BERKGAR2,2198.0,Berkshire south of Gardenwood SB - #2198,,42.962572,-81.28437,,,,,,0
BRADADE3,2203.0,Bradley at Adelaide EB - #2203,,42.935911,-81.209743,,,,,,0
BRADWIL4,2205.0,Bradley at Willow 2 WB - #2205,,42.934989,-81.218937,,,,,,0
BRADWOPS,2206.0,White Oaks Elementary School - #2206,,42.9342,-81.232633,,,,,,0
COMMWCO1,2217.0,Commissioners at Western Counties EB - #2217,,42.958442,-81.218679,,,,,,0
DUNDMCOR,2219.0,Dundas at McCormick Blvd WB - #2219,,42.994537,-81.2121,,,,,,0
EMERRIDG,2220.0,Emery at Ridgewood WB - #2220,,42.964458,-81.275884,,,,,,0
HIGVWHA3,2236.0,89 Highview - #2236,,42.953949,-81.257261,,,,,,0
HORTCOL1,2239.0,Horton at Colborne WB - #2239,,42.981884,-81.236955,,,,,,0
HORTCOL2,2240.0,Horton at Colborne EB - #2240,,42.981597,-81.237487,,,,,,0
JALNBRA7,2242.0,Jalna south of Bradley NB - #2242,,42.933106,-81.243455,,,,,,0
JALNCONW,2243.0,Jalna at Conway NB - #2243,,42.932331,-81.24271,,,,,,0
PMILTHOP,2260.0,Pond Mills at Thompson - #2260,,42.972808,-81.21007,,,,,,0
RIDGKER2,2272.0,Ridgewood at Kernohan WB - #2272,,42.967875,-81.280991,,,,,,0
SOUTHOSP,2276.0,South St Hospital - #2276,,42.976705,-81.235546,,,,,,0
VICZONC,2284.0,Victoria Hospital & Zone A EB - #2284,,42.959493,-81.226954,,,,,,0
WESTTHO1,2292.0,Westminster at Thompson Rd NB - #2292,,42.967501,-81.224994,,,,,,0
WHARHORT,2293.0,Wharncliffe at Horton SB - #2293,,42.975906,-81.262288,,,,,,0
WHOKMANB,2295.0,Jalna at White Oaks Mall NB - #2295,,42.931158,-81.227254,,,,,,0
WHOKMASB,2296.0,Jalna at White Oaks Mall SB - #2296,,42.931102,-81.227399,,,,,,0
WONDVIS4,2305.0,Wonderland at Viscount Rd SB - #2305,,42.947805,-81.28928,,,,,,0
COMMWHAR,2312.0,COMMISSIONERS & WHARNCLIF - #2312,,42.956949,-81.260082,,,,,,0
HAMIWIL1,2317.0,Hamilton at William EB - #2317,,42.98227,-81.230895,,,,,,0
HAMIWIL2,2318.0,Hamilton at William WB - #2318,,42.98248,-81.231086,,,,,,0
WONDSAR2,2322.0,Wonderland South of Sarnia  SB - #2322,,42.994507,-81.298298,,,,,,0
WONDSPRI,2323.0,Wonderland at Springbank SB - #2323,,42.963094,-81.293081,,,,,,0
BRADADE4,2324.0,Bradley between Adelaide & Willow WB - #2324,,42.935836,-81.21345,,,,,,0
BRADAGN1,2325.0,Bradley at Willow 2 EB - #2325,,42.935125,-81.216969,,,,,,0
BRADWEL1,2326.0,Bradley west of Wellington Rd EB - #2326,,42.934247,-81.224411,,,,,,0
BRADWEL2,2327.0,Bradley at Wellington WB - #2327,,42.934508,-81.224159,,,,,,0
KINGDIP1,2333.0,King Edward at Dieppe NB - #2333,,42.967584,-81.212023,,,,,,0
KINGDIP2,2334.0,King Edward at Dieppe SB - #2334,,42.967729,-81.212464,,,,,,0
NEWBBRA1,2335.0,Newbold at Bradley NB - #2335,,42.936267,-81.201488,,,,,,0
RIVEWHA2,2336.0,Riverside east of Wharncliffe WB - #2336,,42.982985,-81.262124,,,,,,0
SOUTNOD3,2337.0,Southdale East of Notre Dame Dr EB - #2337,,42.940153,-81.264311,,,,,,0
FOREHIL1,2341.0,Proudfoot at Forest Hills EB - #2341,,42.983223,-81.284753,,,,,,0
FOREHIL2,2342.0,Proudfoot at Forest Hills WB - #2342,,42.983285,-81.28431,,,,,,0
BEAVWON1,2389.0,Beaverbrook at Wonderland EB - #2389,,42.989248,-81.29701,,,,,,0
CAPUOXFO,2390.0,Capulet Lane at Oxford SB - #2390,,42.983768,-81.296612,,,,,,0
BEAVCAP1,2415.0,Beaverbrook at Capulet WB - #2415,,42.988455,-81.299991,,,,,,0
BEAVHOR2,2417.0,Beaverbrook at Horizon EB - #2417,,42.990257,-81.293584,,,,,,0
BEAVPROU,2418.0,Beaverbrook at Proudfoot EB - #2418,,42.990798,-81.29173,,,,,,0
VICTZON7,2423.0,Victoria Hospital at Zone E WB - #2423,,42.961601,-81.224164,,,,,,0
COMMWCO2,2426.0,Commissioners at Western Counties Rd - #2426,,42.958514,-81.22334,,,,,,0
WELLCRE2,2428.0,Wellington Between Creston and Wilkins NB - #2428,,42.948492,-81.227842,,,,,,0
WESTMAL4,2436.0,Westmount Mall at Stop 4 - #2436,,42.947502,-81.291672,,,,,,0
WESTMAL5,2437.0,Westmount Mall at Stop 5 - #2437,,42.9473,-81.292217,,,,,,0
WESTMAL6,2438.0,Westmount Mall at Stop 6 - #2438,,42.947352,-81.291827,,,,,,0
PONDSCE2,2449.0,Pond Mills north of Scenic SB - #2449,,42.972444,-81.209591,,,,,,0
COMMBEA1,2461.0,Commissioners at Beachwood WB - #2461,,42.956137,-81.276837,,,,,,0
COMMBEA2,2462.0,Commissioners west of Beachwood EB - #2462,,42.955804,-81.278701,,,,,,0
COMMBEA3,2463.0,353 Commissioners - #2463,,42.955854,-81.279878,,,,,,0
COMMFOE1,2464.0,Commissioners at Forest Edge WB - #2464,,42.954813,-81.287851,,,,,,0
COMMFOE2,2465.0,Commissioners at Forest Edge EB - #2465,,42.954529,-81.288286,,,,,,0
COMMTOP1,2466.0,Commissioners at Topping Lane WB - #2466,,42.955326,-81.284038,,,,,,0
COMMTOP2,2467.0,Commissioners at Topping Lane EB - #2467,,42.955281,-81.283906,,,,,,0
ROXBCAS2,2488.0,Roxburgh at Castleton WB - #2488,,42.919576,-81.20377,,,,,,0
SISEGVA2,2490.0,Sise at Green Valley NS SB - #2490,,42.922103,-81.202517,,,,,,0
SISEWIG2,2492.0,Sise at Wilton Grove FS SB - #2492,,42.926519,-81.203194,,,,,,0
VICTWEST,2499.0,Victoria Hospital West Entrance NB - #2499,,42.958824,-81.228335,,,,,,0
2454MAIN,2504.0,Main at Bainard Street - #2504,,42.910348,-81.29678,,,,,,0
CAMPMARI,2506.0,Campbell at Marianna SB - #2506,,42.908825,-81.290361,,,,,,0
CAMPSUNR,2507.0,Campbell at Sunray SB - #2507,,42.906921,-81.289498,,,,,,0
COLTBROA,2508.0,Col Talbot at Broadway NB - #2508,,42.907747,-81.299135,,,,,,0
MAINCAMP,2518.0,Main at Campbell EB - #2518,,42.911671,-81.291879,,,,,,0
WHARCAMP,2522.0,Wharncliffe & Campbell - #2522,,42.912394,-81.290943,,,,,,0
WHARSAVO,2523.0,Wharncliffe at Savoy SB - #2523,,42.917457,-81.284838,,,,,,0
WONDBRA2,2525.0,Wonderland at Bradley FS NB - #2525,,42.932846,-81.279825,,,,,,0
WONDWHAR,2528.0,Wonderland at Wharncliffe NB - #2528,,42.924222,-81.277947,,,,,,0
SPRIWOND,2551.0,SPRINGBANK AT WONDERLAND - #2551,,42.963376,-81.293335,,,,,,0
NOTRBELM,2589.0,Notre Dame at Belmont NB - #2589,,42.945862,-81.26784,,,,,,0
NOTRNORT,2590.0,Notre Dame at Norton NB - #2590,,42.942767,-81.266955,,,,,,0
NOTRSDAL,2591.0,Notre Dame at Southdale NB - #2591,,42.940578,-81.266504,,,,,,0
NOTRVIS2,2592.0,Notre Dame at Viscount NB - #2592,,42.948463,-81.270496,,,,,,0
WHARLEGE,2593.0,Wharncliffe & Legendary FS SB - #2593,,42.937396,-81.261016,,,,,,0
WHARSOUT,2594.0,Wharncliffe & Southdale NS SB - #2594,,42.941215,-81.257979,,,,,,0
WHARWON2,2595.0,Wharncliffe & Morgan FS SB - #2595,,42.926969,-81.273561,,,,,,0
WONDPOWR,2596.0,Wonderland & Power Centre Driveway - #2596,,42.936613,-81.280747,,,,,,0
BRADMEDI,2597.0,Bradley Medical Centre - #2597,,42.934185,-81.229978,,,,,,0
JALNARC5,2598.0,Jalna south of Archer 2 SB - #2598,,42.925985,-81.229217,,,,,,0
BASECOTS,2605.0,Base Line at Cotswold WB - #2605,,42.958416,-81.27099,,,,,,0
WONDWHA2,2610.0,Wonderland & Wharncliffe FS 2 NB - #2610,,42.926019,-81.278341,,,,,,0
PARKMEHE,2616.0,Parkwood Hospital at Mental Health Building - #2616,,42.954056,-81.226738,,,,,,0
VISCDUN2,2633.0,Viscount at Dunsmoor EB - #2633,,42.944816,-81.298567,,,,,,0
FERNHAM1,2641.0,Ferndale at Hampstead EB - #2641,,42.94714,-81.247113,,,,,,0
FERNHAM2,2642.0,Ferndale at Hampstead WB - #2642,,42.947192,-81.247644,,,,,,0
FERNHOM1,2643.0,Ferndale at Homeview EB - #2643,,42.94692,-81.250697,,,,,,0
FERNVIN1,2645.0,Ferndale at Vincent WB - #2645,,42.946761,-81.243845,,,,,,0
HORTSPRI,2683.0,Horton at Springbank WB - #2683,,42.975348,-81.269979,,,,,,0
GRANRIDO,2684.0,Grand at Bellevue EB - #2684,,42.97138,-81.246221,,,,,,0
SPRIFORH,2688.0,Springbank at Forest Hill WB - #2688,,42.972636,-81.274765,,,,,,0
WELLHARL,2689.0,Wellington at Harlech Gt SB - #2689,,42.941826,-81.225455,,,,,,0
ADELDUFR,2690.0,Adelaide at Dufferin SB - #2690,,42.991425,-81.232891,,,,,,0
SUNRHOWA,2691.0,Sunray at Howard WB - #2691,,42.905571,-81.294421,,,,,,0
WESTTHO2,2702.0,Westminster at Thompson Rd SB - #2702,,42.967767,-81.224865,,,,,,0
SUNRCOLT,2703.0,Colonel Talbot at Sunray NB - #2703,,42.905244,-81.297939,,,,,,0
WONDFAR5,2730.0,Wonderland south of Farrah NB - #2730,,42.985342,-81.293364,,,,,,0
KINGRIC1,2735.0,King at Richmond EB - #2735,,42.982543,-81.2488,,,,,,0
KINGTALB,2736.0,King at Talbot EB - #2736,,42.981637,-81.252034,,,,,,0
QUEERIC1,2737.0,Queens at Richmond WB - #2737,,42.98525,-81.24965,,,,,,0
RICHKIN4,2740.0,Richmond at King SB - #2740,,42.982623,-81.249175,,,,,,0
RICHQUE1,2741.0,Richmond north of Queens SB - #2741,,42.985098,-81.250438,,,,,,0
RICHQUE2,2742.0,Richmond south of Queens SB - #2742,,42.984459,-81.250107,,,,,,0
RIDOYOR2,2743.0,Ridout at York NB - #2743,,42.980336,-81.252865,,,,,,0
WATEKINS,2744.0,Waterloo & King St SB - #2744,,42.984423,-81.241892,,,,,,0
SOUTSING,2748.0,Southdale at Singleton NS EB - #2748,,42.939259,-81.27664,,,,,,0
SOUTSPRI,2749.0,Southdale at Springmeadow EB - #2749,,42.939714,-81.270057,,,,,,0
WHARCAST,2751.0,Wharncliffe at Castle Rock SB - #2751,,42.932731,-81.266579,,,,,,0
WONDBRA3,2752.0,Wonderland at Bradley NS NB - #2752,,42.929391,-81.279073,,,,,,0
COMMAND1,2758.0,Commissioners at Andover EB - #2758,,42.956092,-81.274636,,,,,,0
COMMWES1,2759.0,Commissioners at West WB - #2759,,42.956494,-81.270401,,,,,,0
DALHBRI2,2760.0,Dalhousie at Brixham WB - #2760,,42.938928,-81.291187,,,,,,0
DALHMCM1,2761.0,Dalhousie south of McMaster SB - #2761,,42.940333,-81.28826,,,,,,0
KERNRID1,2762.0,Kernohan at Ridgewood Cres NB - #2762,,42.968108,-81.280591,,,,,,0
KERNSPR1,2763.0,Kernohan at Springbank Dr SB - #2763,,42.968954,-81.281168,,,,,,0
SOUTBAS1,2764.0,Southcrest at Base Line Rd WB - #2764,,42.963995,-81.280197,,,,,,0
SOUTBAS2,2765.0,Southcrest at Base Line EB - #2765,,42.963954,-81.279755,,,,,,0
SOUTGAR1,2766.0,Southcrest at Gardenwood Dr WB - #2766,,42.963886,-81.284769,,,,,,0
SOUTGAR2,2767.0,Southcrest east of Gardenwood EB - #2767,,42.96383,-81.28437,,,,,,0
SOUTPINE,2768.0,Southdale at Pine Valley EB - #2768,,42.938701,-81.283717,,,,,,0
SOUTSWCC,2769.0,Southdale at SW Community Centre EB - #2769,,42.938393,-81.288383,,,,,,0
TOPPCOM1,2770.0,Topping Lane at Commissioners NB - #2770,,42.955886,-81.283106,,,,,,0
BRADERN1,2790.0,Bradley west of Ernest WB - #2790,,42.934461,-81.236875,,,,,,0
BRADERN2,2791.0,Bradley west of Ernest 2 WB - #2791,,42.934504,-81.240483,,,,,,0
BRADJAL1,2792.0,Bradley at Jalna FS EB - West Leg - #2792,,42.933373,-81.243164,,,,,,0
BRADJAL2,2793.0,Bradley west of Jalna WB - East Leg - #2793,,42.934342,-81.228901,,,,,,0
BRADJAL3,2794.0,Bradley west of Jalna WB - West Leg - #2794,,42.93316,-81.244069,,,,,,0
COLBOXFO,2799.0,Colborne at Oxford NB - #2799,,42.998104,-81.245584,,,,,,0
COLBSJM1,2800.0,Colborne at St. James NB - #2800,,42.999516,-81.246304,,,,,,0
COLBSJM2,2801.0,Colborne at St. James SB - #2801,,42.999882,-81.246661,,,,,,0
COMMCAR1,2802.0,Commissioners at Carnegie EB - #2802,,42.95707,-81.252776,,,,,,0
COMMCAR2,2803.0,Commissioners at Carnegie WB - #2803,,42.957299,-81.25202,,,,,,0
COMMHIG2,2804.0,Commissioners at High EB - #2804,,42.957999,-81.234836,,,,,,0
COMMHIG3,2805.0,Commissioners at High WB - #2805,,42.958172,-81.235294,,,,,,0
COMMHIHE,2806.0,Commissioners at Highland Heights EB - #2806,,42.957504,-81.244155,,,,,,0
COMMHILD,2807.0,Commissioners at Highland WB - #2807,,42.95706,-81.258284,,,,,,0
COMMKIFD,2808.0,Commissioners at Kingsford WB - #2808,,42.958033,-81.238789,,,,,,0
COMMRIDO,2809.0,Commissioners at Ridout WB - #2809,,42.957808,-81.242128,,,,,,0
COMMUPP1,2810.0,Commissioners at Upper Queens FS EB - #2810,,42.95769,-81.240978,,,,,,0
COMMWEL1,2811.0,Commissioners at Wellington NS EB - #2811,,42.958113,-81.231224,,,,,,0
COMMWELL,2812.0,Commissioners at Wellington WB - #2812,,42.958353,-81.230904,,,,,,0
COMMWHA1,2813.0,Commissioners at Wharncliffe FS EB - #2813,,42.956738,-81.259968,,,,,,0
COMMWHA2,2814.0,Commissioners at Wharncliffe WB - #2814,,42.956915,-81.261072,,,,,,0
COMMWORT,2815.0,Commissioners at Wortley WB - #2815,,42.957617,-81.245721,,,,,,0
EXETBRE1,2820.0,Exeter at Breck FS 2 EB - #2820,,42.922879,-81.250712,,,,,,0
EXETBRE2,2821.0,Exeter at Breck NS WB - #2821,,42.922755,-81.25439,,,,,,0
EXETBREC,2822.0,Exeter at Breck FS 1 EB - #2822,,42.922582,-81.253885,,,,,,0
EXETMEA2,2823.0,Exeter at Meadowbrook NS WB - #2823,,42.922099,-81.262122,,,,,,0
EXETMEA3,2824.0,Exeter at Meadowbrook FS WB - #2824,,42.921669,-81.267691,,,,,,0
EXETMEA4,2825.0,Exeter at Meadowbrook FS 1 EB - #2825,,42.921557,-81.266372,,,,,,0
EXETMEA5,2826.0,Exeter at Meadowbrook FS 2 EB - #2826,,42.921883,-81.262239,,,,,,0
EXETWHIT,2827.0,Exeter at White Oak Road WB - #2827,,42.923078,-81.250843,,,,,,0
EXETWON1,2828.0,Exeter at Wonderland FS WB - #2828,,42.920822,-81.277777,,,,,,0
EXETWOND,2829.0,Exeter at Wonderland FS EB - #2829,,42.920771,-81.276599,,,,,,0
PONDOLD1,2864.0,Pond Mills at Oldham South Leg SB - #2864,,42.959338,-81.200146,,,,,,0
SOUTMONT,2878.0,Southdale at Montgomery WB - #2878,,42.943475,-81.227054,,,,,,0
WELLSDA4,2886.0,Wellington at Southdale NS 1 NB - #2886,,42.942949,-81.225455,,,,,,0
WELLSDA5,2887.0,Wellington at Southdale NS 3 NB - #2887,,42.942176,-81.225262,,,,,,0
WHARBAS3,2892.0,Wharncliffe at Base Line NS NB - #2892,,42.958709,-81.260758,,,,,,0
WHARRIV1,2896.0,Wharncliffe at Riverside NB - #2896,,42.98255,-81.26254,,,,,,0
WHARSAV1,2897.0,Wharncliffe at Savoy FS 2 SB - #2897,,42.914822,-81.288048,,,,,,0
WHITBRA1,2898.0,White Oak Road south of Bradley SB - #2898,,42.92971,-81.249489,,,,,,0
WHITBRAD,2899.0,White Oak Road at Bradley NS NB - #2899,,42.931339,-81.249597,,,,,,0
WHITDOW1,2900.0,White Oak Road at Dowell FS NB - #2900,,42.929483,-81.24918,,,,,,0
WHITDOW2,2901.0,White Oak Road at Dowell NS SB - #2901,,42.927813,-81.249048,,,,,,0
WHITDOWE,2902.0,White Oak Road at Dowell NS NB - #2902,,42.92739,-81.248689,,,,,,0
WHITEXE1,2903.0,White Oak Road at Exeter 2 NB - #2903,,42.925736,-81.248319,,,,,,0
WHITEXE2,2904.0,White Oak Road at Exeter NS 1 SB - #2904,,42.925574,-81.248498,,,,,,0
WHITEXE3,2905.0,White Oak Road at Exeter NS 2 SB - #2905,,42.923436,-81.248007,,,,,,0
WHITEXET,2906.0,White Oak Road at Exeter NB - #2906,,42.923652,-81.247821,,,,,,0
WELLBAS3,2911.0,Wellington at Baseline Rd FS NB - #2911,,42.962116,-81.230972,,,,,,0
PONDAIL2,2915.0,Pond Mills at Ailsa NB - #2915,,42.970579,-81.204727,,,,,,0
KINGWEL2,2916.0,King west of Wellington EB - #2916 ,,42.983595,-81.244957,,,,,,0
COLBGRE1,2917.0,Colborne at Grey NB - #2917,,42.979868,-81.236278,,,,,,0
COLBHOR1,2918.0,Colborne south of Horton NB - #2918,,42.981524,-81.237148,,,,,,0
COLBHOR2,2919.0,Colborne south of Horton SB - #2919,,42.981389,-81.237234,,,,,,0
WATEDUN1,2925.0,Waterloo south of Dundas NB - #2925,,42.98553,-81.242358,,,,,,0
WATEQUE1,2926.0,Waterloo at Queens NB - #2926,,42.987303,-81.243253,,,,,,0
WATEDUF1,2960.0,Waterloo south of Dufferin SB - #2960,,42.98787,-81.243694,,,,,,0
WHARMOR2,2961.0,Wharncliffe at Morgan NS SB - #2961 ,,42.928928,-81.271164,,,,,,0
BRADMIL1,2967.0,Bradley at Millbank EB - #2967,,42.93649,-81.20192,,,,,,0
BRADMIL2,2968.0,Bradley at Millbank WB - #2968,,42.93659,-81.20202,,,,,,0
KIEDTHOM,,King Edward at Thompson - #,,42.969475,-81.212779,,,,,,0
SDALNIXO,,Southdale at Nixon - #,,42.942508,-81.236577,,,,,,0
PROUOXFO,,Proudfoot at Oxford - #,,42.985155,-81.288054,,,,,,0
EXEWONDE,,Exeter & Wonderland - #,,42.920807,-81.277187,,,,,,0
